timestamp,rollspeed,pitchspeed,yawspeed,q[0],q[1],q[2],q[3],delta_q_reset[0],delta_q_reset[1],delta_q_reset[2],delta_q_reset[3],quat_reset_counter
743693766,-0.00076286,-0.00114746,0.00132912,0.851093,-0.00787565,0.0129913,-0.524796,0.870776,-0.0397471,-0.0356996,-0.488769,1
743725665,-0.000622574,0.00014653,0.0016752,0.851103,-0.00787763,0.0129878,-0.524779,0.870776,-0.0397471,-0.0356996,-0.488769,1
743753716,0.000509611,-0.000850962,0.00086412,0.851112,-0.00788687,0.0129741,-0.524765,0.870776,-0.0397471,-0.0356996,-0.488769,1
743785666,0.000910797,0.00152487,-0.000444432,0.851108,-0.00788572,0.0129808,-0.52477,0.870776,-0.0397471,-0.0356996,-0.488769,1
743818526,0.00135717,0.000603397,0.000139613,0.851101,-0.00787129,0.0129929,-0.524782,0.870776,-0.0397471,-0.0356996,-0.488769,1
743850667,-0.00143587,0.000468327,-0.000447393,0.851104,-0.00786819,0.0129969,-0.524776,0.870776,-0.0397471,-0.0356996,-0.488769,1
743882601,0.000168138,3.94781e-05,-0.000562363,0.851112,-0.00786523,0.0130002,-0.524764,0.870776,-0.0397471,-0.0356996,-0.488769,1
743914492,-0.000470268,-0.000567192,0.000102852,0.851123,-0.00785765,0.0129866,-0.524747,0.870776,-0.0397471,-0.0356996,-0.488769,1
743946603,-0.000162844,-1.99428e-05,-0.00149343,0.85112,-0.00785929,0.0129774,-0.524751,0.870776,-0.0397471,-0.0356996,-0.488769,1
743974501,0.00018287,0.00118535,-0.000623413,0.851121,-0.0078442,0.0129881,-0.524751,0.870776,-0.0397471,-0.0356996,-0.488769,1
744006553,-0.000672443,-0.00048576,-0.000302231,0.851122,-0.00783944,0.0129961,-0.524749,0.870776,-0.0397471,-0.0356996,-0.488769,1
744038611,0.000436196,-0.00112489,0.0019302,0.851132,-0.00783507,0.0129885,-0.524732,0.870776,-0.0397471,-0.0356996,-0.488769,1
744070587,-0.000649533,0.000417504,0.000814233,0.85114,-0.00783599,0.0129832,-0.524719,0.870776,-0.0397471,-0.0356996,-0.488769,1
744102504,-0.000142672,-0.000187968,-0.000532656,0.851133,-0.00783737,0.0129785,-0.52473,0.870776,-0.0397471,-0.0356996,-0.488769,1
744134629,-0.000283169,0.00108883,-0.000505716,0.851131,-0.00783638,0.0129837,-0.524733,0.870776,-0.0397471,-0.0356996,-0.488769,1
744163314,-0.000460529,0.00027199,-2.95163e-05,0.851136,-0.00783415,0.0129922,-0.524726,0.870776,-0.0397471,-0.0356996,-0.488769,1
744195329,-0.000320958,-0.000817585,0.001519,0.851146,-0.00784012,0.0129963,-0.524709,0.870776,-0.0397471,-0.0356996,-0.488769,1
744227370,0.000927448,-0.000768214,0.000535124,0.851152,-0.0078347,0.0130034,-0.5247,0.870776,-0.0397471,-0.0356996,-0.488769,1
744259300,0.0011097,-0.00022972,-0.00152513,0.851145,-0.00782925,0.0129919,-0.524712,0.870776,-0.0397471,-0.0356996,-0.488769,1
744291293,-0.000790773,0.000591601,-3.13046e-05,0.851144,-0.00783922,0.0129887,-0.524713,0.870776,-0.0397471,-0.0356996,-0.488769,1
744323304,0.000917233,-6.7316e-05,-0.000356078,0.851152,-0.00783095,0.01299,-0.5247,0.870776,-0.0397471,-0.0356996,-0.488769,1
744355297,0.000441306,0.00104793,0.00247481,0.851169,-0.00783064,0.0129992,-0.524673,0.870776,-0.0397471,-0.0356996,-0.488769,1
744387397,0.000370166,0.00138542,-0.00116557,0.851174,-0.00781947,0.0130118,-0.524664,0.870776,-0.0397471,-0.0356996,-0.488769,1
744416153,0.000885964,0.000277536,-0.00196956,0.851165,-0.00781973,0.0130129,-0.524679,0.870776,-0.0397471,-0.0356996,-0.488769,1
744448193,-0.000465589,-0.00197544,-0.000233033,0.851161,-0.00782973,0.0130009,-0.524685,0.870776,-0.0397471,-0.0356996,-0.488769,1
744480138,0.000224296,0.0012553,0.00225672,0.851174,-0.00784348,0.0129945,-0.524664,0.870776,-0.0397471,-0.0356996,-0.488769,1
744512075,0.000633058,-0.0016831,0.00113249,0.851196,-0.00785863,0.0129872,-0.524628,0.870776,-0.0397471,-0.0356996,-0.488769,1
744544149,-0.000156929,0.00163192,-0.000527665,0.851202,-0.00785175,0.0129941,-0.524618,0.870776,-0.0397471,-0.0356996,-0.488769,1
744576075,-0.000374184,0.000405538,-0.00162865,0.851191,-0.0078448,0.0130079,-0.524636,0.870776,-0.0397471,-0.0356996,-0.488769,1
744608118,-0.00182812,-0.00012527,0.000447523,0.851191,-0.00784428,0.0130202,-0.524636,0.870776,-0.0397471,-0.0356996,-0.488769,1
744636088,-0.00056483,-0.000684981,0.000123723,0.851199,-0.00783707,0.0130175,-0.524623,0.870776,-0.0397471,-0.0356996,-0.488769,1
744668092,-0.000983668,-0.00228769,0.00013276,0.851213,-0.00784906,0.0130036,-0.524601,0.870776,-0.0397471,-0.0356996,-0.488769,1
744700102,0.000163109,0.000758826,-0.00111914,0.851219,-0.00784646,0.0129935,-0.524591,0.870776,-0.0397471,-0.0356996,-0.488769,1
744732190,0.000341744,0.00171748,-0.00299429,0.851204,-0.00782986,0.0130056,-0.524615,0.870776,-0.0397471,-0.0356996,-0.488769,1
744764122,0.000158314,0.000955952,-0.00135244,0.851196,-0.00782622,0.0130115,-0.524629,0.870776,-0.0397471,-0.0356996,-0.488769,1
744796931,-0.00030741,0.00238416,0.0016779,0.851204,-0.00780984,0.0130219,-0.524616,0.870776,-0.0397471,-0.0356996,-0.488769,1
744828875,-0.00135871,-0.0033321,0.00242302,0.851221,-0.00781525,0.0130136,-0.524588,0.870776,-0.0397471,-0.0356996,-0.488769,1
744856964,0.00113265,-0.00156842,-0.000590859,0.851227,-0.00782655,0.012992,-0.524579,0.870776,-0.0397471,-0.0356996,-0.488769,1
744888887,-3.0044e-05,-0.000146072,9.76137e-05,0.851221,-0.00782342,0.0129739,-0.524589,0.870776,-0.0397471,-0.0356996,-0.488769,1
744920940,0.000284306,0.000450144,-0.000467819,0.851218,-0.00782462,0.0129593,-0.524594,0.870776,-0.0397471,-0.0356996,-0.488769,1
744952922,0.000423112,0.000567568,0.00144481,0.851228,-0.00781291,0.0129686,-0.524578,0.870776,-0.0397471,-0.0356996,-0.488769,1
744985038,0.000344922,0.00031112,0.00262985,0.851249,-0.00780689,0.0129697,-0.524544,0.870776,-0.0397471,-0.0356996,-0.488769,1
745016889,0.000597893,0.000778861,-0.000595411,0.851256,-0.00780696,0.0129649,-0.524533,0.870776,-0.0397471,-0.0356996,-0.488769,1
745045649,0.000239274,-0.00238491,-0.00247064,0.851247,-0.00780914,0.0129522,-0.524547,0.870776,-0.0397471,-0.0356996,-0.488769,1
745077696,0.000902677,-0.000659375,-0.00148503,0.85124,-0.00781812,0.0129309,-0.524559,0.870776,-0.0397471,-0.0356996,-0.488769,1
745109704,0.000729482,-0.00118876,0.000572294,0.851247,-0.007817,0.0129228,-0.524548,0.870776,-0.0397471,-0.0356996,-0.488769,1
745141731,-5.41715e-06,0.000434607,0.00103087,0.851261,-0.00781387,0.0129224,-0.524525,0.870776,-0.0397471,-0.0356996,-0.488769,1
745173651,0.000378185,0.00192435,-0.000976574,0.851264,-0.00780333,0.0129319,-0.52452,0.870776,-0.0397471,-0.0356996,-0.488769,1
745205705,0.000288546,0.000606737,0.000476058,0.85126,-0.00780481,0.0129309,-0.524527,0.870776,-0.0397471,-0.0356996,-0.488769,1
745237709,0.00112445,-0.00105044,-0.000827475,0.85126,-0.00780102,0.0129124,-0.524527,0.870776,-0.0397471,-0.0356996,-0.488769,1
745265691,0.000103022,-0.000617513,0.00130137,0.851267,-0.00781108,0.0129007,-0.524516,0.870776,-0.0397471,-0.0356996,-0.488769,1
745297709,0.000963081,-3.49372e-05,0.00210064,0.851285,-0.00780738,0.0129018,-0.524487,0.870776,-0.0397471,-0.0356996,-0.488769,1
745329732,-0.000861266,0.00127948,0.00100073,0.851291,-0.00780866,0.0129183,-0.524477,0.870776,-0.0397471,-0.0356996,-0.488769,1
745361665,0.00027371,0.000330063,-0.00098809,0.851285,-0.00780206,0.0129159,-0.524487,0.870776,-0.0397471,-0.0356996,-0.488769,1
745394504,-0.000883615,0.000278205,-4.40341e-06,0.851277,-0.00780693,0.0129169,-0.524499,0.870776,-0.0397471,-0.0356996,-0.488769,1
745426505,-0.00106513,-0.00198947,0.00171934,0.851286,-0.00781696,0.0129039,-0.524485,0.870776,-0.0397471,-0.0356996,-0.488769,1
745458575,0.000524924,-0.000191817,0.00137707,0.851296,-0.00783307,0.0128833,-0.52447,0.870776,-0.0397471,-0.0356996,-0.488769,1
745486620,0.000923236,0.000475514,-0.000275355,0.851299,-0.00783536,0.0128709,-0.524464,0.870776,-0.0397471,-0.0356996,-0.488769,1
745518618,-3.23392e-05,0.000345192,-0.000428769,0.8513,-0.00784349,0.012875,-0.524463,0.870776,-0.0397471,-0.0356996,-0.488769,1
745550546,0.00220062,0.00109825,-0.000641438,0.8513,-0.00782033,0.0128842,-0.524464,0.870776,-0.0397471,-0.0356996,-0.488769,1
745582537,0.000328592,0.00108837,0.00142727,0.851308,-0.00781296,0.012893,-0.52445,0.870776,-0.0397471,-0.0356996,-0.488769,1
745614576,0.00201755,-0.000119044,0.000712299,0.851311,-0.00781031,0.0128771,-0.524445,0.870776,-0.0397471,-0.0356996,-0.488769,1
745646659,0.00110929,0.000269457,-0.0018768,0.851309,-0.00781497,0.0128632,-0.524448,0.870776,-0.0397471,-0.0356996,-0.488769,1
745678576,0.00112251,0.00150033,-0.00116399,0.851305,-0.00781871,0.0128599,-0.524455,0.870776,-0.0397471,-0.0356996,-0.488769,1
745710711,-0.000861925,0.000109238,0.000874502,0.851313,-0.00780767,0.0128546,-0.524442,0.870776,-0.0397471,-0.0356996,-0.488769,1
745742498,0.000732623,0.000210318,0.00133778,0.851326,-0.0078001,0.0128612,-0.524422,0.870776,-0.0397471,-0.0356996,-0.488769,1
745775335,0.00095234,-0.00147537,0.00122824,0.851341,-0.00780725,0.0128567,-0.524397,0.870776,-0.0397471,-0.0356996,-0.488769,1
745807439,0.000817117,-0.000605769,-0.000304273,0.851342,-0.00779517,0.0128461,-0.524395,0.870776,-0.0397471,-0.0356996,-0.488769,1
745839260,-0.000580456,-0.000342124,-0.00124639,0.851336,-0.00780216,0.0128404,-0.524406,0.870776,-0.0397471,-0.0356996,-0.488769,1
745871555,-0.000332069,-0.000321857,0.000875548,0.851342,-0.00779421,0.0128406,-0.524396,0.870776,-0.0397471,-0.0356996,-0.488769,1
745903351,0.000543781,0.000695739,0.00198212,0.851354,-0.00777324,0.0128529,-0.524376,0.870776,-0.0397471,-0.0356996,-0.488769,1
745935339,-0.000333111,0.000331171,0.0010493,0.851364,-0.00775984,0.0128521,-0.52436,0.870776,-0.0397471,-0.0356996,-0.488769,1
745967418,7.37474e-05,0.000216294,-0.000866447,0.851363,-0.00775539,0.0128508,-0.524362,0.870776,-0.0397471,-0.0356996,-0.488769,1
745999327,-0.00014602,-0.0010526,-0.000794202,0.851362,-0.00775046,0.0128318,-0.524365,0.870776,-0.0397471,-0.0356996,-0.488769,1
746032121,-0.00105975,-0.000548758,0.000790376,0.85137,-0.00774809,0.0128222,-0.524352,0.870776,-0.0397471,-0.0356996,-0.488769,1
746060120,-0.000560917,0.000899626,-3.0423e-05,0.851377,-0.00773932,0.0128351,-0.524341,0.870776,-0.0397471,-0.0356996,-0.488769,1
746092105,0.000703202,-0.000544332,-0.00126824,0.851379,-0.00772327,0.0128337,-0.524338,0.870776,-0.0397471,-0.0356996,-0.488769,1
746124122,-0.000578826,0.000735491,-0.0012002,0.851372,-0.00771142,0.0128292,-0.524349,0.870776,-0.0397471,-0.0356996,-0.488769,1
746156135,0.00126919,-0.000764547,0.000649802,0.851375,-0.00770382,0.0128134,-0.524344,0.870776,-0.0397471,-0.0356996,-0.488769,1
746188069,0.000237271,-0.000584509,0.0020539,0.851389,-0.00770064,0.012794,-0.524322,0.870776,-0.0397471,-0.0356996,-0.488769,1
746220152,-0.000761145,-0.00153211,0.000317311,0.851401,-0.00770196,0.0127747,-0.524304,0.870776,-0.0397471,-0.0356996,-0.488769,1
746252152,-0.000882913,0.00267948,-0.000764156,0.851395,-0.007688,0.012777,-0.524313,0.870776,-0.0397471,-0.0356996,-0.488769,1
746284169,0.000935881,0.000149951,-0.000139777,0.851392,-0.00767652,0.0127847,-0.524318,0.870776,-0.0397471,-0.0356996,-0.488769,1
746316054,-0.000332505,-0.00069365,4.30499e-05,0.851395,-0.0076749,0.0127844,-0.524313,0.870776,-0.0397471,-0.0356996,-0.488769,1
746344054,0.000328887,-0.00127165,0.00123029,0.851407,-0.00768174,0.0127647,-0.524294,0.870776,-0.0397471,-0.0356996,-0.488769,1
746376857,0.000200159,-0.00228665,0.000117578,0.851414,-0.00769842,0.0127437,-0.524283,0.870776,-0.0397471,-0.0356996,-0.488769,1
746408944,-2.64909e-05,-0.000292347,-0.000513811,0.851412,-0.0077113,0.0127162,-0.524286,0.870776,-0.0397471,-0.0356996,-0.488769,1
746440905,0.00115556,0.0018678,9.19196e-05,0.851408,-0.00769766,0.0127249,-0.524294,0.870776,-0.0397471,-0.0356996,-0.488769,1
746472943,2.15941e-05,0.000686923,0.00187849,0.851418,-0.00768526,0.012738,-0.524277,0.870776,-0.0397471,-0.0356996,-0.488769,1
746504855,-0.000111013,0.000109456,0.000858304,0.851429,-0.00767302,0.0127633,-0.524258,0.870776,-0.0397471,-0.0356996,-0.488769,1
746533038,-0.000568046,-0.00170344,-0.000960395,0.851428,-0.00767604,0.012763,-0.52426,0.870776,-0.0397471,-0.0356996,-0.488769,1
746564876,-0.00138959,-0.00239206,5.632e-05,0.851424,-0.00768621,0.0127306,-0.524268,0.870776,-0.0397471,-0.0356996,-0.488769,1
746596943,0.000548382,-8.28613e-05,0.0012721,0.851423,-0.00768714,0.0127221,-0.52427,0.870776,-0.0397471,-0.0356996,-0.488769,1
746628898,-0.000294632,0.000707896,0.0022048,0.851435,-0.0076808,0.0127303,-0.524249,0.870776,-0.0397471,-0.0356996,-0.488769,1
746660927,-0.000727228,0.00194369,0.00140381,0.851447,-0.00766876,0.0127496,-0.524229,0.870776,-0.0397471,-0.0356996,-0.488769,1
746692922,-0.000143016,-0.000332059,-0.00125307,0.851442,-0.0076477,0.0127756,-0.524238,0.870776,-0.0397471,-0.0356996,-0.488769,1
746725660,-0.000467101,-0.000635403,-0.000806749,0.851431,-0.00764442,0.0127766,-0.524256,0.870776,-0.0397471,-0.0356996,-0.488769,1
746757737,0.00104488,-0.00102162,-0.000167122,0.851431,-0.00764433,0.0127659,-0.524255,0.870776,-0.0397471,-0.0356996,-0.488769,1
746789701,0.00181322,-0.000226977,0.000625269,0.851435,-0.00763987,0.0127505,-0.524249,0.870776,-0.0397471,-0.0356996,-0.488769,1
746821718,0.000221376,0.00160027,0.000977636,0.85144,-0.00761836,0.0127607,-0.524242,0.870776,-0.0397471,-0.0356996,-0.488769,1
746853722,-0.000249151,-0.000296356,-0.000725902,0.851437,-0.00761332,0.0127712,-0.524247,0.870776,-0.0397471,-0.0356996,-0.488769,1
746885736,-0.000133048,1.94516e-05,-0.000741372,0.851421,-0.00760277,0.012781,-0.524272,0.870776,-0.0397471,-0.0356996,-0.488769,1
746917721,-1.61988e-05,-0.00071384,-0.000376665,0.851421,-0.00760371,0.0127835,-0.524272,0.870776,-0.0397471,-0.0356996,-0.488769,1
746945721,0.00023592,-0.000594359,0.00173683,0.851432,-0.00760182,0.0127768,-0.524254,0.870776,-0.0397471,-0.0356996,-0.488769,1
746977718,0.000807214,-0.00149985,-0.00131829,0.851432,-0.00760532,0.0127699,-0.524254,0.870776,-0.0397471,-0.0356996,-0.488769,1
747010608,-0.00107931,0.000700098,-1.33641e-05,0.851427,-0.00759472,0.012774,-0.524262,0.870776,-0.0397471,-0.0356996,-0.488769,1
747042621,0.00129309,-0.000154236,-1.14975e-06,0.851429,-0.0075816,0.0127942,-0.524259,0.870776,-0.0397471,-0.0356996,-0.488769,1
747074577,-0.000121185,-0.000617117,-0.000803673,0.851427,-0.00758063,0.012794,-0.524262,0.870776,-0.0397471,-0.0356996,-0.488769,1
747106625,-0.000528779,-0.000346278,0.000461356,0.851431,-0.00757519,0.0127952,-0.524256,0.870776,-0.0397471,-0.0356996,-0.488769,1
747138673,0.00117474,-0.00150817,0.00059522,0.851436,-0.00758067,0.0127881,-0.524248,0.870776,-0.0397471,-0.0356996,-0.488769,1
747170540,-0.00109544,0.000564166,-0.000527322,0.851433,-0.00758441,0.0127869,-0.524253,0.870776,-0.0397471,-0.0356996,-0.488769,1
747202686,0.00147386,0.000232451,-0.000798927,0.851429,-0.00757825,0.0128003,-0.524259,0.870776,-0.0397471,-0.0356996,-0.488769,1
747234642,-2.09664e-07,0.000182381,0.000212015,0.85143,-0.0075684,0.012793,-0.524258,0.870776,-0.0397471,-0.0356996,-0.488769,1
747266684,0.000756569,-0.000132565,0.000295478,0.851432,-0.00755269,0.0127942,-0.524254,0.870776,-0.0397471,-0.0356996,-0.488769,1
747299472,-0.00577013,-0.00527184,0.0253147,0.851579,-0.00758617,0.0127973,-0.524016,0.870776,-0.0397471,-0.0356996,-0.488769,1
747327459,0.00907912,0.00161769,-0.00407078,0.851649,-0.00756164,0.0127515,-0.523904,0.870776,-0.0397471,-0.0356996,-0.488769,1
747359324,0.00061471,-0.00543472,-0.0167879,0.851537,-0.00761153,0.0127127,-0.524086,0.870776,-0.0397471,-0.0356996,-0.488769,1
747391278,0.00378534,-0.00129543,-0.00800251,0.851435,-0.00762044,0.0125918,-0.524254,0.870776,-0.0397471,-0.0356996,-0.488769,1
747423356,0.00102602,-0.000244976,0.00415469,0.851422,-0.00763336,0.0126018,-0.524274,0.870776,-0.0397471,-0.0356996,-0.488769,1
747455331,-0.00804867,0.00229796,0.00259956,0.851459,-0.00770207,0.0126008,-0.524213,0.870776,-0.0397471,-0.0356996,-0.488769,1
747487380,0.00768076,0.00456033,0.00225997,0.851488,-0.00758238,0.0126062,-0.524167,0.870776,-0.0397471,-0.0356996,-0.488769,1
747519297,0.00411012,-0.00661393,-0.00313269,0.851479,-0.00766178,0.0126854,-0.52418,0.870776,-0.0397471,-0.0356996,-0.488769,1
747551358,-0.00781362,0.00137072,-0.00140677,0.851456,-0.00766164,0.0126271,-0.524218,0.870776,-0.0397471,-0.0356996,-0.488769,1
747579310,0.00249044,-0.00255256,0.00296959,0.851468,-0.00770446,0.012619,-0.524198,0.870776,-0.0397471,-0.0356996,-0.488769,1
747612151,-0.00350852,-0.00684149,-0.00115993,0.85147,-0.00768196,0.0124908,-0.524198,0.870776,-0.0397471,-0.0356996,-0.488769,1
747644130,0.0122619,0.00335824,0.00192196,0.851465,-0.00774764,0.0125376,-0.524205,0.870776,-0.0397471,-0.0356996,-0.488769,1
747676113,-0.008269,-0.00417158,-0.00577446,0.851447,-0.0077016,0.0125699,-0.524233,0.870776,-0.0397471,-0.0356996,-0.488769,1
747708154,0.00916075,-0.00323396,-0.0299727,0.851223,-0.00776347,0.0125401,-0.524597,0.870776,-0.0397471,-0.0356996,-0.488769,1
747740137,-0.00620036,-0.00704591,-0.00125165,0.851104,-0.00774768,0.012494,-0.524791,0.870776,-0.0397471,-0.0356996,-0.488769,1
747768099,0.00483432,-0.00494625,0.0301275,0.851252,-0.00781997,0.0123898,-0.524552,0.870776,-0.0397471,-0.0356996,-0.488769,1
747800149,-0.00839308,0.00778689,0.0140613,0.851489,-0.007858,0.0123608,-0.524168,0.870776,-0.0397471,-0.0356996,-0.488769,1
747832084,-0.0141776,0.00337444,-0.010853,0.851466,-0.00781274,0.0123912,-0.524205,0.870776,-0.0397471,-0.0356996,-0.488769,1
747864118,-0.00346359,0.00927921,-0.00874041,0.851377,-0.00780297,0.012373,-0.52435,0.870776,-0.0397471,-0.0356996,-0.488769,1
747896064,-0.0162244,0.000503504,0.00295877,0.851332,-0.00778981,0.0124232,-0.524422,0.870776,-0.0397471,-0.0356996,-0.488769,1
747928926,-0.00772769,-0.0114136,0.0132332,0.85142,-0.00785569,0.0123201,-0.524281,0.870776,-0.0397471,-0.0356996,-0.488769,1
747960945,-0.01383,0.00193859,-0.000568316,0.851464,-0.00786673,0.0122537,-0.524212,0.870776,-0.0397471,-0.0356996,-0.488769,1
747988936,0.00920064,0.00181495,-0.0072008,0.851436,-0.00788103,0.0122606,-0.524256,0.870776,-0.0397471,-0.0356996,-0.488769,1
748020939,-0.0130265,-0.00227472,-0.00921327,0.851343,-0.007921,0.0121745,-0.524409,0.870776,-0.0397471,-0.0356996,-0.488769,1
748052894,-0.00629223,0.00777236,0.0131628,0.851338,-0.00787268,0.0122577,-0.524415,0.870776,-0.0397471,-0.0356996,-0.488769,1
748084900,-0.0103722,-0.00607627,0.0310519,0.851551,-0.00793697,0.0121973,-0.524071,0.870776,-0.0397471,-0.0356996,-0.488769,1
748116909,0.0126054,0.00270839,-0.0159324,0.851692,-0.00791147,0.0121867,-0.523841,0.870776,-0.0397471,-0.0356996,-0.488769,1
748148923,-0.0151227,-0.0160389,-0.0669409,0.851323,-0.00795924,0.0121545,-0.524441,0.870776,-0.0397471,-0.0356996,-0.488769,1
748180850,0.00572537,-0.00680135,0.0314601,0.85112,-0.00798925,0.0120051,-0.524774,0.870776,-0.0397471,-0.0356996,-0.488769,1
748212949,0.00171643,-0.00331442,0.0395211,0.851541,-0.0080095,0.0120167,-0.524089,0.870776,-0.0397471,-0.0356996,-0.488769,1
748244931,0.0124491,-0.00480112,-0.017116,0.851605,-0.00801705,0.0119004,-0.523988,0.870776,-0.0397471,-0.0356996,-0.488769,1
748276971,-0.00369886,0.0113029,0.0118686,0.851521,-0.00809966,0.0120089,-0.52412,0.870776,-0.0397471,-0.0356996,-0.488769,1
748309714,-0.0291444,-0.0101714,0.00748073,0.851612,-0.00802523,0.0119539,-0.523976,0.870776,-0.0397471,-0.0356996,-0.488769,1
748341678,0.0177336,-0.0120862,-0.0184574,0.851563,-0.00804038,0.0119729,-0.524054,0.870776,-0.0397471,-0.0356996,-0.488769,1
748373752,-0.00515313,0.0139775,0.00179724,0.851502,-0.00801139,0.0119784,-0.524154,0.870776,-0.0397471,-0.0356996,-0.488769,1
748401715,0.0156239,0.0101587,0.00107228,0.85148,-0.00804857,0.0119576,-0.52419,0.870776,-0.0397471,-0.0356996,-0.488769,1
748433691,-0.00705087,-0.00267542,-0.00333501,0.851516,-0.00809196,0.0119388,-0.524131,0.870776,-0.0397471,-0.0356996,-0.488769,1
748465741,0.00334112,-0.00259983,0.00295456,0.851524,-0.00812729,0.0119349,-0.524116,0.870776,-0.0397471,-0.0356996,-0.488769,1
748497660,-0.0174537,0.00152856,-0.00762963,0.851501,-0.00813174,0.0119406,-0.524154,0.870776,-0.0397471,-0.0356996,-0.488769,1
748529653,0.00152899,-0.0131368,-0.00174024,0.851495,-0.00806222,0.0119202,-0.524166,0.870776,-0.0397471,-0.0356996,-0.488769,1
748561747,-0.00745217,-0.00670704,0.00340897,0.851515,-0.00815476,0.0119911,-0.52413,0.870776,-0.0397471,-0.0356996,-0.488769,1
748593679,-0.0127139,0.00334557,0.00103526,0.851517,-0.00804352,0.0119271,-0.52413,0.870776,-0.0397471,-0.0356996,-0.488769,1
748625673,0.00548648,-0.0149551,-0.00177616,0.851512,-0.0081199,0.0119881,-0.524135,0.870776,-0.0397471,-0.0356996,-0.488769,1
748654553,-0.00101964,0.00852447,0.00297498,0.851524,-0.0080805,0.0119122,-0.524118,0.870776,-0.0397471,-0.0356996,-0.488769,1
748686632,0.00927954,-0.00558797,-0.000834877,0.851472,-0.00812047,0.0119618,-0.5242,0.870776,-0.0397471,-0.0356996,-0.488769,1
748718776,0.00349568,-0.00354083,-0.00281501,0.851478,-0.0081084,0.0118551,-0.524194,0.870776,-0.0397471,-0.0356996,-0.488769,1
748750588,0.00942048,0.00985959,-0.00242775,0.851509,-0.00812577,0.0118968,-0.524142,0.870776,-0.0397471,-0.0356996,-0.488769,1
748782536,0.00338279,-0.0037888,0.00594909,0.851505,-0.0081923,0.0118408,-0.524149,0.870776,-0.0397471,-0.0356996,-0.488769,1
748814621,-0.00398231,-0.0132642,-0.00267689,0.851494,-0.00817441,0.0118061,-0.524168,0.870776,-0.0397471,-0.0356996,-0.488769,1
748846569,-0.0203767,-0.00436109,0.004347,0.851492,-0.00821876,0.0117688,-0.524171,0.870776,-0.0397471,-0.0356996,-0.488769,1
748874548,0.00431716,0.000455762,-0.00495319,0.851504,-0.00818901,0.011789,-0.524151,0.870776,-0.0397471,-0.0356996,-0.488769,1
748907314,-0.0169207,-0.0022202,0.00292371,0.851528,-0.00823771,0.0117383,-0.524112,0.870776,-0.0397471,-0.0356996,-0.488769,1
748939342,0.00790319,0.0014744,0.00308845,0.851512,-0.00819569,0.011756,-0.52414,0.870776,-0.0397471,-0.0356996,-0.488769,1
748971335,-0.00493522,0.0141284,-0.00618852,0.851484,-0.00817633,0.0117539,-0.524185,0.870776,-0.0397471,-0.0356996,-0.488769,1
749003301,0.0090341,-0.0173215,0.00139789,0.851494,-0.00814413,0.0117264,-0.52417,0.870776,-0.0397471,-0.0356996,-0.488769,1
749035265,0.00878221,0.0048269,-0.0101206,0.851517,-0.00814403,0.011787,-0.524132,0.870776,-0.0397471,-0.0356996,-0.488769,1
749063357,-0.00520066,-0.0145886,0.0131435,0.851522,-0.00814936,0.0117014,-0.524124,0.870776,-0.0397471,-0.0356996,-0.488769,1
749095279,-0.00144615,0.00310254,-0.00247116,0.851492,-0.00819185,0.0117638,-0.524172,0.870776,-0.0397471,-0.0356996,-0.488769,1
749127435,-0.0177623,0.00865458,0.00736277,0.851507,-0.00816128,0.0117171,-0.524148,0.870776,-0.0397471,-0.0356996,-0.488769,1
749159312,0.0159201,-0.0091998,0.00968003,0.851518,-0.00814615,0.0117035,-0.524131,0.870776,-0.0397471,-0.0356996,-0.488769,1
749191336,0.0208523,0.00252691,-0.0048668,0.851521,-0.008089,0.0117071,-0.524127,0.870776,-0.0397471,-0.0356996,-0.488769,1
749224122,-0.0296682,0.0166515,-0.0013332,0.851516,-0.00817971,0.0117494,-0.524134,0.870776,-0.0397471,-0.0356996,-0.488769,1
749256058,0.00283399,-0.0125847,0.00844624,0.851508,-0.00811355,0.0117202,-0.524148,0.870776,-0.0397471,-0.0356996,-0.488769,1
749284107,0.0051127,0.0133248,-0.00392059,0.851519,-0.00815172,0.011746,-0.524128,0.870776,-0.0397471,-0.0356996,-0.488769,1
749316124,0.0181967,-0.0173944,-0.00135311,0.851525,-0.0081057,0.011622,-0.524123,0.870776,-0.0397471,-0.0356996,-0.488769,1
749348116,-0.0146685,-0.00863455,-0.0175302,0.851508,-0.00821125,0.0116903,-0.524147,0.870776,-0.0397471,-0.0356996,-0.488769,1
749380233,0.000724092,0.0293977,-0.016695,0.851529,-0.00811929,0.0116987,-0.524113,0.870776,-0.0397471,-0.0356996,-0.488769,1
749412065,0.0114255,-0.00180708,0.0120462,0.851537,-0.00816011,0.0116699,-0.524101,0.870776,-0.0397471,-0.0356996,-0.488769,1
749444099,-0.0179075,-0.0121942,-0.00327798,0.851519,-0.00812681,0.0117356,-0.524129,0.870776,-0.0397471,-0.0356996,-0.488769,1
749476215,-0.0232698,0.021867,-0.0118565,0.851514,-0.00816096,0.0117384,-0.524137,0.870776,-0.0397471,-0.0356996,-0.488769,1
749504157,0.0220226,0.0150559,-0.00207983,0.851529,-0.0081344,0.0116897,-0.524114,0.870776,-0.0397471,-0.0356996,-0.488769,1
749536128,0.0134106,0.0261653,9.67417e-05,0.851538,-0.00814528,0.0117461,-0.524098,0.870776,-0.0397471,-0.0356996,-0.488769,1
749568885,-0.0152203,0.00730081,-0.00150907,0.851545,-0.00816979,0.0116623,-0.524089,0.870776,-0.0397471,-0.0356996,-0.488769,1
749600904,-0.00277282,0.00659478,-0.00180245,0.851529,-0.00824182,0.0116308,-0.524114,0.870776,-0.0397471,-0.0356996,-0.488769,1
749632914,0.0141029,-0.0101052,-0.0105554,0.851522,-0.00813951,0.0116413,-0.524127,0.870776,-0.0397471,-0.0356996,-0.488769,1
749664967,0.026778,-0.00900009,0.00465961,0.851528,-0.0082154,0.0115745,-0.524118,0.870776,-0.0397471,-0.0356996,-0.488769,1
749696918,-0.0460073,-0.0202354,0.00512579,0.851527,-0.00830371,0.0115246,-0.524119,0.870776,-0.0397471,-0.0356996,-0.488769,1
749724932,0.00435896,0.016315,-0.014214,0.851541,-0.00826005,0.0115456,-0.524096,0.870776,-0.0397471,-0.0356996,-0.488769,1
749756891,0.00407074,-0.0165284,-0.0169902,0.851561,-0.00830042,0.0115164,-0.524063,0.870776,-0.0397471,-0.0356996,-0.488769,1
749788915,0.0033077,-0.00794582,0.00676341,0.851567,-0.00829827,0.0114493,-0.524056,0.870776,-0.0397471,-0.0356996,-0.488769,1
749820889,-0.0306142,0.00302262,0.0159839,0.851537,-0.00831696,0.0115738,-0.524101,0.870776,-0.0397471,-0.0356996,-0.488769,1
749852984,0.0130176,-0.0226704,0.0199105,0.851556,-0.00826654,0.0115247,-0.524071,0.870776,-0.0397471,-0.0356996,-0.488769,1
749884931,0.013691,0.00632145,-0.00623922,0.851561,-0.008358,0.0113838,-0.524065,0.870776,-0.0397471,-0.0356996,-0.488769,1
749913716,0.0114544,0.0223971,0.00178572,0.851562,-0.00828593,0.0113354,-0.524066,0.870776,-0.0397471,-0.0356996,-0.488769,1
749945740,0.00157768,-0.0134184,-0.00500998,0.851539,-0.00843336,0.0112631,-0.524103,0.870776,-0.0397471,-0.0356996,-0.488769,1
749977702,-0.0275282,-0.00816581,-0.0146201,0.851554,-0.0084556,0.0111754,-0.524079,0.870776,-0.0397471,-0.0356996,-0.488769,1
750009687,0.0138051,0.0321576,-0.0032475,0.851595,-0.0083723,0.0113089,-0.524012,0.870776,-0.0397471,-0.0356996,-0.488769,1
750041775,-0.00181512,-0.0143782,-0.000865746,0.851609,-0.00845989,0.0112857,-0.523988,0.870776,-0.0397471,-0.0356996,-0.488769,1
750073718,0.0138638,0.00808416,-0.00744169,0.851574,-0.00830563,0.0112395,-0.524048,0.870776,-0.0397471,-0.0356996,-0.488769,1
750105644,-0.0038767,-0.0206848,0.0157199,0.851571,-0.00839948,0.0113301,-0.52405,0.870776,-0.0397471,-0.0356996,-0.488769,1
750137690,0.00231961,0.0128381,-0.00787688,0.85157,-0.00837107,0.0111472,-0.524055,0.870776,-0.0397471,-0.0356996,-0.488769,1
750165731,-0.00555276,0.0301958,0.0171293,0.851597,-0.00844361,0.0112591,-0.524009,0.870776,-0.0397471,-0.0356996,-0.488769,1
750197743,0.00826738,-0.0278019,-0.0063976,0.851599,-0.00847234,0.0112418,-0.524005,0.870776,-0.0397471,-0.0356996,-0.488769,1
750230562,0.0125897,0.00718855,-0.0183199,0.851571,-0.00840991,0.0112432,-0.524051,0.870776,-0.0397471,-0.0356996,-0.488769,1
750262596,0.0123492,-0.00830652,-0.00520104,0.851577,-0.0083671,0.011363,-0.52404,0.870776,-0.0397471,-0.0356996,-0.488769,1
750294704,0.013602,0.0269905,-0.00368811,0.851581,-0.00842351,0.0114002,-0.524031,0.870776,-0.0397471,-0.0356996,-0.488769,1
750326625,-0.00257377,-0.0316505,0.00567059,0.851595,-0.00848019,0.0114134,-0.524008,0.870776,-0.0397471,-0.0356996,-0.488769,1
750358522,0.0299667,-0.00455947,0.00202532,0.851599,-0.00836064,0.0112212,-0.524007,0.870776,-0.0397471,-0.0356996,-0.488769,1
750386571,-0.042529,-0.000536294,-0.0013075,0.851584,-0.0085192,0.0111745,-0.52403,0.870776,-0.0397471,-0.0356996,-0.488769,1
750418556,-0.0296537,-0.0153677,0.00652643,0.851591,-0.00855917,0.0111261,-0.524018,0.870776,-0.0397471,-0.0356996,-0.488769,1
750450610,0.0315091,-0.00293895,-0.0103095,0.851556,-0.00842967,0.0111729,-0.524077,0.870776,-0.0397471,-0.0356996,-0.488769,1
750482499,-0.0093597,-0.00502958,-0.00884942,0.851558,-0.00854619,0.0109949,-0.524076,0.870776,-0.0397471,-0.0356996,-0.488769,1
750514545,0.0372604,0.00100993,0.0112938,0.851591,-0.00857839,0.011008,-0.52402,0.870776,-0.0397471,-0.0356996,-0.488769,1
750546582,0.0524281,0.0218194,-0.00141645,0.851608,-0.00856685,0.0109211,-0.523995,0.870776,-0.0397471,-0.0356996,-0.488769,1
750575308,-0.0600319,-0.00575532,-0.00711603,0.85158,-0.00853788,0.0109981,-0.52404,0.870776,-0.0397471,-0.0356996,-0.488769,1
750607390,0.0219429,0.0220415,-0.0134225,0.851537,-0.00841382,0.0111788,-0.524108,0.870776,-0.0397471,-0.0356996,-0.488769,1
750639403,-0.028901,-0.0258083,0.00114397,0.851561,-0.00841726,0.0111358,-0.52407,0.870776,-0.0397471,-0.0356996,-0.488769,1
750671256,0.0233006,0.00574504,0.0013666,0.851597,-0.00847678,0.0111755,-0.524009,0.870776,-0.0397471,-0.0356996,-0.488769,1
750703329,0.0311501,-0.0197381,-0.0180933,0.851593,-0.00842494,0.0109564,-0.524022,0.870776,-0.0397471,-0.0356996,-0.488769,1
750735280,0.024413,-0.0131022,-0.0175755,0.851562,-0.00860489,0.0108828,-0.52407,0.870776,-0.0397471,-0.0356996,-0.488769,1
750767466,0.0603496,-0.0304364,0.000348543,0.851558,-0.00851003,0.0107599,-0.524081,0.870776,-0.0397471,-0.0356996,-0.488769,1
750799409,-0.00878346,0.0194719,-0.000852348,0.851563,-0.00862841,0.0109359,-0.524068,0.870776,-0.0397471,-0.0356996,-0.488769,1
750828135,0.0334113,-0.0340374,0.0110882,0.851605,-0.00856967,0.0108134,-0.524002,0.870776,-0.0397471,-0.0356996,-0.488769,1
750860124,-0.0292083,-0.00933615,0.0117879,0.851611,-0.00858744,0.0110355,-0.523988,0.870776,-0.0397471,-0.0356996,-0.488769,1
750892027,0.00199129,-0.00670891,0.0103009,0.851609,-0.00838548,0.0110542,-0.523994,0.870776,-0.0397471,-0.0356996,-0.488769,1
750924091,0.00825024,0.0113987,-0.00755472,0.851574,-0.00850641,0.0111538,-0.524047,0.870776,-0.0397471,-0.0356996,-0.488769,1
750956103,0.0250275,-0.0673045,-0.00247969,0.8516,-0.00848095,0.0109269,-0.52401,0.870776,-0.0397471,-0.0356996,-0.488769,1
750988150,0.0382134,-0.0207728,-0.00818642,0.85161,-0.00855758,0.0108877,-0.523993,0.870776,-0.0397471,-0.0356996,-0.488769,1
751016178,0.0427288,-0.0114471,0.00173194,0.851641,-0.00857447,0.0108127,-0.523945,0.870776,-0.0397471,-0.0356996,-0.488769,1
751048066,-0.0225599,-0.0306104,0.00284425,0.851634,-0.00869758,0.0107208,-0.523956,0.870776,-0.0397471,-0.0356996,-0.488769,1
751080058,0.0340895,-0.0279419,-0.00373643,0.851593,-0.0086081,0.0107187,-0.524023,0.870776,-0.0397471,-0.0356996,-0.488769,1
751112149,-0.00464501,-0.0122105,0.0138616,0.851635,-0.00868298,0.010905,-0.52395,0.870776,-0.0397471,-0.0356996,-0.488769,1
751144116,-0.0326766,-0.0140739,0.0057749,0.851685,-0.00859012,0.0110482,-0.523867,0.870776,-0.0397471,-0.0356996,-0.488769,1
751176936,0.0270282,-0.0372038,-0.00335669,0.851656,-0.00859398,0.0110463,-0.523915,0.870776,-0.0397471,-0.0356996,-0.488769,1
751208906,0.0394842,-0.0353733,0.00409938,0.851605,-0.00854796,0.0107608,-0.524005,0.870776,-0.0397471,-0.0356996,-0.488769,1
751236945,-0.0255283,0.00517357,0.0165176,0.851594,-0.00874124,0.0107553,-0.524019,0.870776,-0.0397471,-0.0356996,-0.488769,1
751268894,-0.0343559,-0.0339704,0.0278913,0.851658,-0.00875617,0.0105532,-0.523918,0.870776,-0.0397471,-0.0356996,-0.488769,1
751300927,-0.0679126,0.0333725,0.0140378,0.851679,-0.00881165,0.0108269,-0.523879,0.870776,-0.0397471,-0.0356996,-0.488769,1
751332919,0.0199822,-0.0363619,0.0132041,0.851671,-0.00854807,0.0107537,-0.523896,0.870776,-0.0397471,-0.0356996,-0.488769,1
751365063,-0.0040649,-0.00325994,0.00379005,0.851627,-0.00865222,0.0107693,-0.523966,0.870776,-0.0397471,-0.0356996,-0.488769,1
751396860,0.0395472,-0.044709,0.0168844,0.85163,-0.00849632,0.0107349,-0.523966,0.870776,-0.0397471,-0.0356996,-0.488769,1
751428940,-0.0545482,0.0263966,0.015828,0.851664,-0.00869669,0.0107451,-0.523906,0.870776,-0.0397471,-0.0356996,-0.488769,1
751460932,0.100245,-0.00489359,-0.00185635,0.851693,-0.00859903,0.010579,-0.523864,0.870776,-0.0397471,-0.0356996,-0.488769,1
751488979,-0.0179335,-0.0348765,-0.00175259,0.851671,-0.00867335,0.0106181,-0.523897,0.870776,-0.0397471,-0.0356996,-0.488769,1
751521718,0.057971,0.00324009,0.00405335,0.851647,-0.00864792,0.0104202,-0.523941,0.870776,-0.0397471,-0.0356996,-0.488769,1
751553674,-0.0161252,0.0310368,-0.00750132,0.851622,-0.00867878,0.0104475,-0.52398,0.870776,-0.0397471,-0.0356996,-0.488769,1
751585685,0.0278013,-0.0311262,0.0144472,0.851657,-0.00867517,0.0102506,-0.523928,0.870776,-0.0397471,-0.0356996,-0.488769,1
751617765,-0.000333467,-0.0171429,0.00322262,0.851657,-0.00875734,0.010273,-0.523925,0.870776,-0.0397471,-0.0356996,-0.488769,1
751649751,0.0530309,0.00601203,-0.0118361,0.851643,-0.00859362,0.0102757,-0.523951,0.870776,-0.0397471,-0.0356996,-0.488769,1
751681745,-0.02994,-0.017792,-0.000827758,0.851643,-0.00872117,0.0103366,-0.523948,0.870776,-0.0397471,-0.0356996,-0.488769,1
751713688,-0.0360405,-0.00854371,0.00811375,0.851673,-0.00861742,0.0103761,-0.523901,0.870776,-0.0397471,-0.0356996,-0.488769,1
751745659,0.0351997,-0.00160266,0.00822079,0.851706,-0.00862528,0.0102377,-0.523849,0.870776,-0.0397471,-0.0356996,-0.488769,1
751777857,-0.0334409,0.00194622,-0.0203703,0.851657,-0.00873623,0.0101666,-0.523929,0.870776,-0.0397471,-0.0356996,-0.488769,1
751809732,0.00161291,-0.0250589,-0.00345616,0.851639,-0.00878482,0.00998956,-0.52396,0.870776,-0.0397471,-0.0356996,-0.488769,1
751842658,-0.00580168,0.00538989,-0.00337451,0.851667,-0.00888427,0.00999919,-0.523912,0.870776,-0.0397471,-0.0356996,-0.488769,1
751870568,-0.0186026,0.0192183,0.0140618,0.851717,-0.00871506,0.0100555,-0.523834,0.870776,-0.0397471,-0.0356996,-0.488769,1
751902605,0.0297192,0.0165501,-0.00969463,0.851716,-0.00862676,0.0102881,-0.523832,0.870776,-0.0397471,-0.0356996,-0.488769,1
751934526,-0.0062688,0.0225629,-0.026007,0.851674,-0.00849049,0.0103627,-0.523901,0.870776,-0.0397471,-0.0356996,-0.488769,1
751966643,-0.00681332,0.006363,0.00238042,0.851663,-0.00849309,0.0103452,-0.523919,0.870776,-0.0397471,-0.0356996,-0.488769,1
751998552,0.0534712,-0.00229964,-0.0218349,0.851607,-0.00846794,0.010171,-0.524014,0.870776,-0.0397471,-0.0356996,-0.488769,1
752030588,-0.0342405,-0.0286631,-0.00394684,0.851607,-0.00871393,0.00989275,-0.524015,0.870776,-0.0397471,-0.0356996,-0.488769,1
752062519,-0.00783377,0.00201013,0.0127049,0.85165,-0.00881465,0.00962878,-0.523948,0.870776,-0.0397471,-0.0356996,-0.488769,1
752094583,-0.00384977,0.0175688,0.0106814,0.851678,-0.00874165,0.00962381,-0.523905,0.870776,-0.0397471,-0.0356996,-0.488769,1
752123297,-0.00176878,0.0216667,-0.0102634,0.851684,-0.00856936,0.00974529,-0.523895,0.870776,-0.0397471,-0.0356996,-0.488769,1
752155292,-0.024784,0.0156143,0.0124534,0.851683,-0.00858194,0.00994454,-0.523893,0.870776,-0.0397471,-0.0356996,-0.488769,1
752187452,0.0348867,0.0220696,0.00797838,0.851675,-0.00833438,0.0100932,-0.523907,0.870776,-0.0397471,-0.0356996,-0.488769,1
752219320,0.00177033,-0.00884019,0.0129861,0.851671,-0.00834949,0.0100761,-0.523914,0.870776,-0.0397471,-0.0356996,-0.488769,1
752251292,-0.0196473,-0.0348775,-0.0281577,0.851667,-0.00840357,0.00992096,-0.523921,0.870776,-0.0397471,-0.0356996,-0.488769,1
752283322,0.0144948,-0.0167091,-0.013026,0.851638,-0.0085626,0.00982044,-0.523969,0.870776,-0.0397471,-0.0356996,-0.488769,1
752311261,0.0175384,0.008847,0.0149332,0.851644,-0.00849719,0.00973819,-0.523962,0.870776,-0.0397471,-0.0356996,-0.488769,1
752343322,0.0451851,-0.0035023,-0.00580821,0.851656,-0.00846048,0.00976813,-0.523942,0.870776,-0.0397471,-0.0356996,-0.488769,1
752375304,-0.0282673,-0.0087224,0.00215852,0.851643,-0.0085171,0.00976915,-0.523963,0.870776,-0.0397471,-0.0356996,-0.488769,1
752407457,0.0369165,0.0381288,-0.0136855,0.851637,-0.00841886,0.00976307,-0.523973,0.870776,-0.0397471,-0.0356996,-0.488769,1
752440104,-0.0249316,0.0232338,0.0119655,0.851661,-0.00850834,0.00968435,-0.523935,0.870776,-0.0397471,-0.0356996,-0.488769,1
752472070,-0.0372245,-0.014297,-0.0141791,0.851639,-0.00861413,0.00948417,-0.523972,0.870776,-0.0397471,-0.0356996,-0.488769,1
752500132,-0.0222977,-0.0155227,0.015351,0.851653,-0.00855891,0.00930125,-0.523953,0.870776,-0.0397471,-0.0356996,-0.488769,1
752532128,0.023095,0.00465863,0.0177549,0.851727,-0.00856881,0.00925759,-0.523834,0.870776,-0.0397471,-0.0356996,-0.488769,1
752564109,-0.0452555,-0.0271529,0.0110025,0.851725,-0.00864725,0.00918578,-0.523837,0.870776,-0.0397471,-0.0356996,-0.488769,1
752596102,0.0121173,0.00779716,0.0113061,0.851716,-0.00868877,0.0089501,-0.523855,0.870776,-0.0397471,-0.0356996,-0.488769,1
752628125,-0.0859565,-0.0494458,-0.00422663,0.851675,-0.00881289,0.00869762,-0.523924,0.870776,-0.0397471,-0.0356996,-0.488769,1
752660129,0.0162455,0.00318787,-0.00699344,0.851696,-0.00896691,0.00854176,-0.52389,0.870776,-0.0397471,-0.0356996,-0.488769,1
752692138,-0.0186081,-0.0421257,-0.030429,0.851682,-0.00891935,0.00834621,-0.523916,0.870776,-0.0397471,-0.0356996,-0.488769,1
752724121,0.0542055,0.0130348,-0.00520424,0.851703,-0.00882729,0.00847449,-0.523882,0.870776,-0.0397471,-0.0356996,-0.488769,1
752752173,-0.0302707,-0.0336284,0.0255378,0.851723,-0.00870519,0.00848431,-0.523851,0.870776,-0.0397471,-0.0356996,-0.488769,1
752784918,0.00137107,-0.0314488,-0.00882821,0.851678,-0.00881559,0.00870418,-0.52392,0.870776,-0.0397471,-0.0356996,-0.488769,1
752816936,0.0343226,-0.0091215,0.0198153,0.85168,-0.00855194,0.00858493,-0.523922,0.870776,-0.0397471,-0.0356996,-0.488769,1
752848910,0.0332542,-0.0783186,0.00821,0.851662,-0.00867016,0.00856084,-0.52395,0.870776,-0.0397471,-0.0356996,-0.488769,1
752881013,0.000442117,-0.0182716,0.0204417,0.851688,-0.00874412,0.00822023,-0.523912,0.870776,-0.0397471,-0.0356996,-0.488769,1
752912888,-0.0363436,-0.0325095,0.000770588,0.851621,-0.00876497,0.00805172,-0.524022,0.870776,-0.0397471,-0.0356996,-0.488769,1
752944873,0.02383,0.00440051,-0.0046068,0.851648,-0.00886421,0.00778625,-0.523981,0.870776,-0.0397471,-0.0356996,-0.488769,1
752972857,-0.0141151,0.00653744,0.0196463,0.85169,-0.00883919,0.00766085,-0.523916,0.870776,-0.0397471,-0.0356996,-0.488769,1
753004891,0.0111452,0.0409733,-0.00647606,0.851686,-0.00878244,0.00776864,-0.523921,0.870776,-0.0397471,-0.0356996,-0.488769,1
753036933,0.0256628,0.0324677,-0.00833041,0.851662,-0.00861516,0.00791067,-0.52396,0.870776,-0.0397471,-0.0356996,-0.488769,1
753068970,0.0424086,0.0343136,-0.0199845,0.851605,-0.00835451,0.00822069,-0.524053,0.870776,-0.0397471,-0.0356996,-0.488769,1
753100921,0.00109342,0.0240097,0.00752948,0.851596,-0.00829209,0.00831062,-0.524067,0.870776,-0.0397471,-0.0356996,-0.488769,1
753133699,-0.0229129,-0.0199276,0.0150671,0.851569,-0.00830373,0.00824357,-0.524112,0.870776,-0.0397471,-0.0356996,-0.488769,1
753161689,-0.00269099,0.00734972,0.0288329,0.851597,-0.00829582,0.00819548,-0.524067,0.870776,-0.0397471,-0.0356996,-0.488769,1
753193674,-0.0322633,-0.0189214,0.00911196,0.851653,-0.00840589,0.00802732,-0.523977,0.870776,-0.0397471,-0.0356996,-0.488769,1
753225683,0.0156494,0.0066452,-0.0118778,0.851687,-0.00853039,0.00768084,-0.523925,0.870776,-0.0397471,-0.0356996,-0.488769,1
753257711,0.0102482,-0.00704155,-0.0172138,0.851677,-0.00862554,0.00773487,-0.52394,0.870776,-0.0397471,-0.0356996,-0.488769,1
753289777,0.056615,0.0186153,-0.00217696,0.851675,-0.00860778,0.00771665,-0.523943,0.870776,-0.0397471,-0.0356996,-0.488769,1
753321654,0.00473598,0.0304279,-0.00497749,0.8517,-0.0086872,0.00780629,-0.5239,0.870776,-0.0397471,-0.0356996,-0.488769,1
753353740,-0.0130382,0.0111604,-0.000673627,0.851687,-0.00844973,0.00797577,-0.523922,0.870776,-0.0397471,-0.0356996,-0.488769,1
753385713,0.0379105,0.0175892,-0.0440067,0.851663,-0.00836796,0.00793238,-0.523963,0.870776,-0.0397471,-0.0356996,-0.488769,1
753414559,-0.00716955,-0.0880474,0.0103728,0.851642,-0.0084591,0.00770925,-0.523998,0.870776,-0.0397471,-0.0356996,-0.488769,1
753446609,0.0402358,-0.0242569,0.0141361,0.851623,-0.0083822,0.00753356,-0.524034,0.870776,-0.0397471,-0.0356996,-0.488769,1
753478605,0.00495098,-0.0270914,0.0260395,0.851623,-0.00847595,0.00731789,-0.524036,0.870776,-0.0397471,-0.0356996,-0.488769,1
753510499,-0.0282347,-0.0151207,0.0237209,0.851645,-0.00834805,0.00718801,-0.524003,0.870776,-0.0397471,-0.0356996,-0.488769,1
753542537,0.0518106,0.000380901,-0.00985162,0.851677,-0.00836002,0.00715564,-0.523951,0.870776,-0.0397471,-0.0356996,-0.488769,1
753574522,-0.0198949,0.00294266,0.0286051,0.851724,-0.00815854,0.00718394,-0.523878,0.870776,-0.0397471,-0.0356996,-0.488769,1
753606615,-0.0359715,-0.035745,0.0302198,0.851709,-0.00834495,0.00704461,-0.523902,0.870776,-0.0397471,-0.0356996,-0.488769,1
753634714,-0.0364026,0.00616072,0.00218728,0.851718,-0.00834359,0.00687279,-0.523889,0.870776,-0.0397471,-0.0356996,-0.488769,1
753666651,-0.0216861,-0.0434045,0.013646,0.85169,-0.00838061,0.00681666,-0.523934,0.870776,-0.0397471,-0.0356996,-0.488769,1
753698534,0.0609581,-0.018099,-0.00309324,0.851696,-0.00835541,0.00650113,-0.523929,0.870776,-0.0397471,-0.0356996,-0.488769,1
753731271,0.0786017,0.0340269,-0.0523371,0.851613,-0.00857931,0.00638871,-0.524062,0.870776,-0.0397471,-0.0356996,-0.488769,1
753763323,0.0127493,0.0300833,0.00277697,0.851652,-0.00840807,0.00640866,-0.524001,0.870776,-0.0397471,-0.0356996,-0.488769,1
753795649,-0.0108624,-0.00754997,-0.0128782,0.851644,-0.00852127,0.00607191,-0.524016,0.870776,-0.0397471,-0.0356996,-0.488769,1
753827419,-0.00220415,0.00928215,0.000546376,0.851608,-0.00830663,0.00610369,-0.524077,0.870776,-0.0397471,-0.0356996,-0.488769,1
753859265,-0.0416704,-0.0101759,0.00750181,0.851628,-0.00824717,0.00616296,-0.524045,0.870776,-0.0397471,-0.0356996,-0.488769,1
753891341,0.0233499,0.0060771,0.0145698,0.851603,-0.00825503,0.00576498,-0.52409,0.870776,-0.0397471,-0.0356996,-0.488769,1
753923304,0.0405637,0.0276302,-0.0335984,0.851534,-0.00789156,0.00579574,-0.524208,0.870776,-0.0397471,-0.0356996,-0.488769,1
753955339,0.0657345,0.0158998,-0.0029754,0.851585,-0.00781398,0.00538939,-0.52413,0.870776,-0.0397471,-0.0356996,-0.488769,1
753987405,0.0331477,-0.0333566,-0.0231913,0.851578,-0.00810638,0.00494516,-0.524143,0.870776,-0.0397471,-0.0356996,-0.488769,1
754019557,-0.0382388,0.014027,0.0147487,0.851564,-0.00789602,0.00491753,-0.524169,0.870776,-0.0397471,-0.0356996,-0.488769,1
754048094,-0.00174313,-0.0376698,0.0266905,0.851562,-0.00818153,0.00452502,-0.52417,0.870776,-0.0397471,-0.0356996,-0.488769,1
754080138,0.0326642,0.0577734,-0.0204194,0.851566,-0.0079637,0.00429246,-0.524169,0.870776,-0.0397471,-0.0356996,-0.488769,1
754112108,-0.0190707,-0.0306155,-0.00520481,0.85158,-0.00809888,0.00449822,-0.524143,0.870776,-0.0397471,-0.0356996,-0.488769,1
754144204,-0.0235048,-0.0142607,0.029598,0.851586,-0.00804458,0.00419665,-0.524136,0.870776,-0.0397471,-0.0356996,-0.488769,1
754176056,-0.0510766,-0.0312998,0.00111728,0.851533,-0.00779934,0.00443258,-0.524224,0.870776,-0.0397471,-0.0356996,-0.488769,1
754208145,-0.0109633,-0.00217379,0.0103542,0.851518,-0.00759227,0.00432781,-0.524252,0.870776,-0.0397471,-0.0356996,-0.488769,1
754240153,0.0674097,0.0239033,-0.0109748,0.85152,-0.00746893,0.00397719,-0.524254,0.870776,-0.0397471,-0.0356996,-0.488769,1
754268166,-0.0857873,-0.0264464,-0.00448474,0.851517,-0.00755119,0.00407845,-0.524258,0.870776,-0.0397471,-0.0356996,-0.488769,1
754300122,-0.020923,0.0543163,0.0314263,0.851517,-0.0073478,0.00389865,-0.524261,0.870776,-0.0397471,-0.0356996,-0.488769,1
754332098,0.0569992,-0.0109589,0.00963536,0.851485,-0.00700598,0.00393299,-0.524317,0.870776,-0.0397471,-0.0356996,-0.488769,1
754364893,-0.019401,-0.0594914,0.000939609,0.851385,-0.00684185,0.00399924,-0.524481,0.870776,-0.0397471,-0.0356996,-0.488769,1
754397011,0.0625414,-0.020884,-0.0376402,0.851286,-0.00667745,0.00381123,-0.524645,0.870776,-0.0397471,-0.0356996,-0.488769,1
754428947,0.0488777,0.0321833,-0.00617601,0.851244,-0.0064692,0.00350963,-0.524719,0.870776,-0.0397471,-0.0356996,-0.488769,1
754456982,-0.0777084,-0.079112,0.0193008,0.851269,-0.00686308,0.00321945,-0.524675,0.870776,-0.0397471,-0.0356996,-0.488769,1
754488924,-0.048849,-0.0308755,0.0186946,0.85123,-0.00686095,0.00264979,-0.524741,0.870776,-0.0397471,-0.0356996,-0.488769,1
754520849,-0.0296184,0.0155961,0.0311248,0.851269,-0.00671331,0.00245304,-0.524681,0.870776,-0.0397471,-0.0356996,-0.488769,1
754553073,0.0547177,-0.0219591,0.0112227,0.851312,-0.00666599,0.00204975,-0.524614,0.870776,-0.0397471,-0.0356996,-0.488769,1
754584983,0.0290276,-0.0379707,0.000123528,0.851314,-0.00693755,0.00212655,-0.524606,0.870776,-0.0397471,-0.0356996,-0.488769,1
754616938,0.0203571,0.0233944,-0.034547,0.851247,-0.00668747,0.00220382,-0.524718,0.870776,-0.0397471,-0.0356996,-0.488769,1
754648946,0.0945525,0.0309529,-0.0313457,0.851207,-0.0064859,0.00238733,-0.524784,0.870776,-0.0397471,-0.0356996,-0.488769,1
754680881,0.00362234,0.0273791,-0.0301446,0.851181,-0.00622029,0.00228998,-0.52483,0.870776,-0.0397471,-0.0356996,-0.488769,1
754709050,-0.0267611,-0.0453464,-0.00139727,0.851135,-0.00589707,0.00233855,-0.524908,0.870776,-0.0397471,-0.0356996,-0.488769,1
754741692,0.0928213,-0.0384388,-0.0174383,0.851017,-0.00558754,0.00184786,-0.525105,0.870776,-0.0397471,-0.0356996,-0.488769,1
754773707,0.0240658,-0.041356,-0.000642645,0.850966,-0.00528574,0.00109264,-0.525194,0.870776,-0.0397471,-0.0356996,-0.488769,1
754805775,0.0328545,-0.0167564,-0.0282293,0.850864,-0.0051129,0.000616658,-0.525361,0.870776,-0.0397471,-0.0356996,-0.488769,1
754837695,0.0474609,-0.0558221,0.00187345,0.850833,-0.00509148,4.16109e-05,-0.525411,0.870776,-0.0397471,-0.0356996,-0.488769,1
754869706,0.0355525,0.0226244,-0.00417578,0.850832,-0.0049119,5.27882e-06,-0.525415,0.870776,-0.0397471,-0.0356996,-0.488769,1
754901710,0.0935917,-0.0263244,-0.0362244,0.850843,-0.0046203,-0.000186776,-0.5254,0.870776,-0.0397471,-0.0356996,-0.488769,1
754929746,-0.0536411,0.0510443,0.020863,0.85083,-0.00491862,0.000269427,-0.525417,0.870776,-0.0397471,-0.0356996,-0.488769,1
754961836,0.0686698,-0.0141556,0.0214332,0.850771,-0.00492961,0.000473281,-0.525513,0.870776,-0.0397471,-0.0356996,-0.488769,1
754993749,-0.0835392,-0.0396163,0.00360893,0.850712,-0.00492174,0.000588125,-0.525608,0.870776,-0.0397471,-0.0356996,-0.488769,1
755025711,0.0439783,0.00504971,-0.0219333,0.850672,-0.0049596,0.000606036,-0.525672,0.870776,-0.0397471,-0.0356996,-0.488769,1
755058688,0.0330513,-0.0263417,-0.00278833,0.850737,-0.00492861,6.48104e-05,-0.525569,0.870776,-0.0397471,-0.0356996,-0.488769,1
755090474,-0.00267222,-0.00372814,-0.00105433,0.850743,-0.00508889,0.000141773,-0.525557,0.870776,-0.0397471,-0.0356996,-0.488769,1
755118591,0.0921892,-0.0648894,-0.00384581,0.850724,-0.00503231,5.16223e-05,-0.525588,0.870776,-0.0397471,-0.0356996,-0.488769,1
755150498,-0.0662129,0.0101629,-0.0206409,0.850693,-0.00491984,2.49231e-05,-0.525641,0.870776,-0.0397471,-0.0356996,-0.488769,1
755182648,-0.0683343,0.0153755,-0.00783745,0.850711,-0.00497957,0.000368867,-0.525609,0.870776,-0.0397471,-0.0356996,-0.488769,1
755214545,-0.0501407,0.0332402,0.0160716,0.850661,-0.00491214,-0.000134128,-0.525691,0.870776,-0.0397471,-0.0356996,-0.488769,1
755246571,-0.0398051,0.0404125,0.0227443,0.850569,-0.00477296,-0.000233543,-0.525842,0.870776,-0.0397471,-0.0356996,-0.488769,1
755278471,0.0699363,-0.0397166,0.0334877,0.850577,-0.00470959,-0.000256523,-0.525829,0.870776,-0.0397471,-0.0356996,-0.488769,1
755310555,0.0151035,-0.0292592,0.0247546,0.850634,-0.00459842,-0.000340197,-0.525738,0.870776,-0.0397471,-0.0356996,-0.488769,1
755342522,-0.0524298,-0.00134268,-0.0212227,0.85053,-0.00442389,9.94322e-05,-0.525908,0.870776,-0.0397471,-0.0356996,-0.488769,1
755371357,0.0623766,0.0679519,-0.00372849,0.85051,-0.00426796,0.000381048,-0.525942,0.870776,-0.0397471,-0.0356996,-0.488769,1
755403319,0.104359,0.0343076,-0.026207,0.85046,-0.00408529,0.000357108,-0.526023,0.870776,-0.0397471,-0.0356996,-0.488769,1
755435285,0.131763,-0.0412866,-0.0190049,0.850389,-0.00408833,0.00050693,-0.526138,0.870776,-0.0397471,-0.0356996,-0.488769,1
755467402,-0.0135664,-0.0769124,-0.0116783,0.850408,-0.00433636,0.000110562,-0.526105,0.870776,-0.0397471,-0.0356996,-0.488769,1
755499289,-0.0721537,0.0316302,-0.0152476,0.850418,-0.00428167,3.34429e-05,-0.52609,0.870776,-0.0397471,-0.0356996,-0.488769,1
755531339,-0.0626502,0.0290432,0.0183594,0.850508,-0.00385233,0.000249426,-0.525949,0.870776,-0.0397471,-0.0356996,-0.488769,1
755559325,0.0610606,-0.035228,0.026873,0.850569,-0.00375546,-0.000222904,-0.525849,0.870776,-0.0397471,-0.0356996,-0.488769,1
755591355,0.0478052,-0.034642,-0.0073646,0.850492,-0.00360935,-0.000163737,-0.525975,0.870776,-0.0397471,-0.0356996,-0.488769,1
755623305,-0.0655373,-0.0555579,-0.0208567,0.850374,-0.00344865,-0.000298829,-0.526167,0.870776,-0.0397471,-0.0356996,-0.488769,1
755656092,-0.0345015,0.011355,-0.0281603,0.850338,-0.00352898,-0.000445501,-0.526224,0.870776,-0.0397471,-0.0356996,-0.488769,1
755688075,0.00306144,0.0470833,-0.000582971,0.850364,-0.00329307,-0.000665297,-0.526184,0.870776,-0.0397471,-0.0356996,-0.488769,1
755720251,0.118708,0.0523997,-0.00352867,0.850431,-0.0028842,-0.000917523,-0.526078,0.870776,-0.0397471,-0.0356996,-0.488769,1
755748095,-0.143444,-0.00378344,0.0357706,0.850497,-0.00339699,-0.000439532,-0.525969,0.870776,-0.0397471,-0.0356996,-0.488769,1
755780157,-0.125906,0.0123242,0.0138579,0.850469,-0.0033322,-9.80412e-05,-0.526014,0.870776,-0.0397471,-0.0356996,-0.488769,1
755812050,-0.0648383,0.0400353,0.000823607,0.850395,-0.00323186,2.7691e-05,-0.526135,0.870776,-0.0397471,-0.0356996,-0.488769,1
755844097,-0.0151841,0.0395736,0.0120814,0.850321,-0.003378,0.000215361,-0.526253,0.870776,-0.0397471,-0.0356996,-0.488769,1
755876158,0.0566911,-0.026302,0.00582031,0.850265,-0.00337782,0.000247868,-0.526344,0.870776,-0.0397471,-0.0356996,-0.488769,1
755908257,0.0480707,-0.0520304,0.00527902,0.850315,-0.00342783,4.3137e-05,-0.526264,0.870776,-0.0397471,-0.0356996,-0.488769,1
755940104,-0.0866122,-0.0275064,0.00926506,0.85039,-0.00343092,-0.000109323,-0.526141,0.870776,-0.0397471,-0.0356996,-0.488769,1
755972192,-0.00537368,0.00482612,-0.0378,0.850347,-0.00342368,-4.76269e-07,-0.526212,0.870776,-0.0397471,-0.0356996,-0.488769,1
756000062,0.110813,0.00971901,-0.00296268,0.850386,-0.00270716,-0.000376715,-0.526153,0.870776,-0.0397471,-0.0356996,-0.488769,1
756032865,-0.00377377,-0.0134209,-0.0160108,0.850412,-0.00293369,-0.000139109,-0.526109,0.870776,-0.0397471,-0.0356996,-0.488769,1
756064883,0.00146687,0.00219806,0.00170823,0.850392,-0.00264294,0.00021653,-0.526143,0.870776,-0.0397471,-0.0356996,-0.488769,1
756096922,-0.0608922,-0.0211648,0.010682,0.850296,-0.00245933,0.000245336,-0.5263,0.870776,-0.0397471,-0.0356996,-0.488769,1
756128953,-0.101536,-0.0187869,0.000485609,0.850154,-0.00253111,0.000129497,-0.526529,0.870776,-0.0397471,-0.0356996,-0.488769,1
756160876,-0.0554842,0.025482,0.0269333,0.85012,-0.00253513,-0.000125722,-0.526582,0.870776,-0.0397471,-0.0356996,-0.488769,1
756192967,0.0774713,0.00332413,0.0309521,0.850188,-0.00251203,-0.000191322,-0.526473,0.870776,-0.0397471,-0.0356996,-0.488769,1
756220884,-0.0138834,-0.005128,0.0156901,0.850195,-0.00274062,-5.0292e-05,-0.526461,0.870776,-0.0397471,-0.0356996,-0.488769,1
756252918,0.0365282,0.00906537,-0.0163324,0.850193,-0.00256805,-4.24079e-06,-0.526465,0.870776,-0.0397471,-0.0356996,-0.488769,1
756284921,0.0821031,0.0706881,-0.0389491,0.850199,-0.00255474,7.44229e-05,-0.526455,0.870776,-0.0397471,-0.0356996,-0.488769,1
756317743,0.137264,0.040437,-0.0247912,0.85014,-0.00215435,0.000164435,-0.526552,0.870776,-0.0397471,-0.0356996,-0.488769,1
756349664,0.07624,-0.0426724,-0.00498295,0.850119,-0.00236816,-0.000412446,-0.526586,0.870776,-0.0397471,-0.0356996,-0.488769,1
756381767,0.0482362,0.00467683,-0.00791071,0.850102,-0.0023824,-0.00060218,-0.526612,0.870776,-0.0397471,-0.0356996,-0.488769,1
756409722,-0.0627011,0.0168453,0.0199027,0.850157,-0.00217683,3.05123e-05,-0.526525,0.870776,-0.0397471,-0.0356996,-0.488769,1
756441748,0.0318886,-0.000668827,-0.000819187,0.850207,-0.00181365,-0.000333918,-0.526446,0.870776,-0.0397471,-0.0356996,-0.488769,1
756473733,0.0283536,0.0171964,-0.0157932,0.850108,-0.00206852,-0.000164525,-0.526605,0.870776,-0.0397471,-0.0356996,-0.488769,1
756505768,0.109921,-0.0586357,-0.0211491,0.849989,-0.00166235,-0.000610226,-0.526798,0.870776,-0.0397471,-0.0356996,-0.488769,1
756537705,-0.00362251,-0.0647384,0.00182781,0.849954,-0.00202158,-0.00092905,-0.526852,0.870776,-0.0397471,-0.0356996,-0.488769,1
756569735,-0.0702778,-0.00192383,-0.00998079,0.849894,-0.00187798,-0.00102081,-0.526949,0.870776,-0.0397471,-0.0356996,-0.488769,1
756601704,0.0226673,-0.00131761,-0.0102223,0.849963,-0.00179188,-0.00133578,-0.526837,0.870776,-0.0397471,-0.0356996,-0.488769,1
756633823,0.0879045,0.0631628,-0.00755598,0.850061,-0.00172521,-0.00152757,-0.526679,0.870776,-0.0397471,-0.0356996,-0.488769,1
756662528,-0.0575545,0.00102602,0.00393138,0.850104,-0.00177033,-0.00125323,-0.526611,0.870776,-0.0397471,-0.0356996,-0.488769,1
756694645,-0.0109748,-0.0180107,0.0106611,0.850087,-0.00154688,-0.00115408,-0.52664,0.870776,-0.0397471,-0.0356996,-0.488769,1
756726678,-0.0511981,-0.00415339,0.0251674,0.850075,-0.00114338,-0.00145465,-0.526659,0.870776,-0.0397471,-0.0356996,-0.488769,1
756758592,-0.167481,0.0251285,0.030971,0.850051,-0.000789275,-0.00144304,-0.526698,0.870776,-0.0397471,-0.0356996,-0.488769,1
756790564,0.0126832,0.0459726,0.00697054,0.85005,0.00032978,-0.00229285,-0.526696,0.870776,-0.0397471,-0.0356996,-0.488769,1
756822549,-0.0189419,0.0490033,0.00364808,0.849998,0.00105864,-0.00271761,-0.526778,0.870776,-0.0397471,-0.0356996,-0.488769,1
756854471,0.0599406,0.0363689,0.032716,0.849978,0.00194054,-0.00300725,-0.526807,0.870776,-0.0397471,-0.0356996,-0.488769,1
756882652,0.0669445,0.0181855,0.0102715,0.850033,0.00282276,-0.00338665,-0.526711,0.870776,-0.0397471,-0.0356996,-0.488769,1
756915317,0.0581928,-0.0120354,-0.00258436,0.850067,0.00392575,-0.00391045,-0.526645,0.870776,-0.0397471,-0.0356996,-0.488769,1
756947393,0.0146273,0.0126044,-0.0293586,0.85005,0.00476666,-0.00460604,-0.526661,0.870776,-0.0397471,-0.0356996,-0.488769,1
756979383,0.0748295,0.0662622,-0.0111359,0.850013,0.00558341,-0.00498393,-0.526709,0.870776,-0.0397471,-0.0356996,-0.488769,1
757011326,0.0948989,0.0386074,-0.000238091,0.850027,0.00641779,-0.005714,-0.526669,0.870776,-0.0397471,-0.0356996,-0.488769,1
757043332,0.11896,0.00997691,-0.00891099,0.850066,0.00671015,-0.00613014,-0.526598,0.870776,-0.0397471,-0.0356996,-0.488769,1
757071565,-0.0423426,-0.00877657,0.0272409,0.850093,0.00694226,-0.00624477,-0.526549,0.870776,-0.0397471,-0.0356996,-0.488769,1
757103319,-0.136651,0.00090648,0.0395514,0.850132,0.0072669,-0.00662055,-0.526478,0.870776,-0.0397471,-0.0356996,-0.488769,1
757135283,-0.0572744,0.0328708,-0.00858365,0.850136,0.00724583,-0.00702497,-0.526466,0.870776,-0.0397471,-0.0356996,-0.488769,1
757167389,0.0129528,0.0545566,0.0114969,0.850136,0.00763794,-0.00684489,-0.526463,0.870776,-0.0397471,-0.0356996,-0.488769,1
757199318,0.0295718,0.0150142,0.0552168,0.850332,0.00797058,-0.00664047,-0.526144,0.870776,-0.0397471,-0.0356996,-0.488769,1
757232049,-0.0332491,-0.0124107,0.0217919,0.850456,0.00753542,-0.00674717,-0.525949,0.870776,-0.0397471,-0.0356996,-0.488769,1
757264052,0.0634126,0.00570659,-0.00799398,0.850324,0.00767991,-0.00643312,-0.526164,0.870776,-0.0397471,-0.0356996,-0.488769,1
757296091,-0.0235781,-0.0565728,0.0103902,0.850297,0.00757994,-0.0063772,-0.526211,0.870776,-0.0397471,-0.0356996,-0.488769,1
757328089,-0.0706365,-0.060018,-0.004049,0.850271,0.00683698,-0.00637404,-0.526262,0.870776,-0.0397471,-0.0356996,-0.488769,1
757360048,-0.0760883,-0.0456402,-0.0196929,0.850169,0.00661903,-0.00625405,-0.526431,0.870776,-0.0397471,-0.0356996,-0.488769,1
757392103,-0.0318396,-0.0170064,-0.0283755,0.850127,0.00644838,-0.00628228,-0.5265,0.870776,-0.0397471,-0.0356996,-0.488769,1
757424125,-0.0570444,0.0185214,-0.0155295,0.850124,0.00601264,-0.00648703,-0.526508,0.870776,-0.0397471,-0.0356996,-0.488769,1
757456193,-0.0188477,0.0673328,0.000205098,0.850162,0.00549804,-0.00637479,-0.526454,0.870776,-0.0397471,-0.0356996,-0.488769,1
757484141,-0.0277509,-0.0289574,0.018899,0.850234,0.00531565,-0.00609529,-0.526343,0.870776,-0.0397471,-0.0356996,-0.488769,1
757516109,-0.0794396,0.0457076,0.0320335,0.850325,0.00534392,-0.00535083,-0.526204,0.870776,-0.0397471,-0.0356996,-0.488769,1
757548077,-0.172695,0.0221414,0.0387557,0.850508,0.00529082,-0.004733,-0.525914,0.870776,-0.0397471,-0.0356996,-0.488769,1
757580920,-0.218001,0.0318238,0.0109347,0.850542,0.00523077,-0.00430361,-0.525864,0.870776,-0.0397471,-0.0356996,-0.488769,1
757612934,-0.114979,0.000708418,-0.0294625,0.850416,0.00531092,-0.0040702,-0.526069,0.870776,-0.0397471,-0.0356996,-0.488769,1
757644980,-0.0597901,0.0565549,-0.0111085,0.850258,0.005351,-0.00413753,-0.526322,0.870776,-0.0397471,-0.0356996,-0.488769,1
757677031,-0.0551145,0.0145725,0.0127548,0.850194,0.00524283,-0.00439156,-0.526425,0.870776,-0.0397471,-0.0356996,-0.488769,1
757704962,-0.0633172,-0.0874654,0.00533242,0.850141,0.00446473,-0.00445908,-0.526517,0.870776,-0.0397471,-0.0356996,-0.488769,1
757736856,-0.0883039,-0.0505242,0.00258157,0.850061,0.00360065,-0.00436809,-0.526654,0.870776,-0.0397471,-0.0356996,-0.488769,1
757768933,-0.11479,-0.0139762,-0.0121388,0.850006,0.00381931,-0.00461375,-0.526739,0.870776,-0.0397471,-0.0356996,-0.488769,1
757800941,-0.0722589,-0.00582652,-0.00906561,0.85009,0.00344378,-0.00456722,-0.526607,0.870776,-0.0397471,-0.0356996,-0.488769,1
757832934,-0.0105787,0.0319167,0.00839926,0.85025,0.00338186,-0.00481228,-0.526346,0.870776,-0.0397471,-0.0356996,-0.488769,1
757864871,0.00528419,0.03779,0.00737497,0.850365,0.00309398,-0.00466924,-0.526164,0.870776,-0.0397471,-0.0356996,-0.488769,1
757892934,0.0882928,-0.0112724,0.00348416,0.850406,0.00338113,-0.00449962,-0.526097,0.870776,-0.0397471,-0.0356996,-0.488769,1
757925654,-0.0106717,0.00962674,0.00256787,0.85044,0.0036725,-0.00428786,-0.526041,0.870776,-0.0397471,-0.0356996,-0.488769,1
757957719,-0.148678,-0.0123053,0.0151487,0.850473,0.0034472,-0.00401555,-0.525992,0.870776,-0.0397471,-0.0356996,-0.488769,1
757989703,-0.167107,0.0358921,-0.0112636,0.850326,0.00338872,-0.0041605,-0.526229,0.870776,-0.0397471,-0.0356996,-0.488769,1
758021737,-0.102652,0.0425389,-0.0154512,0.850142,0.00350141,-0.00435279,-0.526523,0.870776,-0.0397471,-0.0356996,-0.488769,1
758053730,-0.11146,0.00512158,0.00845484,0.850076,0.00343198,-0.00521916,-0.526623,0.870776,-0.0397471,-0.0356996,-0.488769,1
758085656,-0.0322087,0.035444,0.00705259,0.849967,0.00279715,-0.00528098,-0.526802,0.870776,-0.0397471,-0.0356996,-0.488769,1
758117756,0.0469683,-0.00827368,0.0352072,0.849978,0.00277553,-0.00505165,-0.526786,0.870776,-0.0397471,-0.0356996,-0.488769,1
758145736,0.0141404,0.00640681,0.0428328,0.850169,0.00293523,-0.00482907,-0.526479,0.870776,-0.0397471,-0.0356996,-0.488769,1
758177690,-0.0269365,0.0395548,0.0112334,0.850431,0.00273307,-0.0045122,-0.52606,0.870776,-0.0397471,-0.0356996,-0.488769,1
758209869,0.0732121,0.0942209,-0.0101521,0.850555,0.00274808,-0.00352441,-0.525867,0.870776,-0.0397471,-0.0356996,-0.488769,1
758241674,0.17896,0.0315457,-0.0312766,0.850577,0.00290075,-0.00346647,-0.525832,0.870776,-0.0397471,-0.0356996,-0.488769,1
758274531,0.146318,0.00698794,-0.0346544,0.850491,0.00306577,-0.00395263,-0.525966,0.870776,-0.0397471,-0.0356996,-0.488769,1
758306577,0.15802,-0.041679,-0.0337504,0.85035,0.00282122,-0.00428871,-0.526192,0.870776,-0.0397471,-0.0356996,-0.488769,1
758338545,0.136386,-0.0542716,-0.0075449,0.850369,0.00315771,-0.00503029,-0.526154,0.870776,-0.0397471,-0.0356996,-0.488769,1
758366586,-0.0900468,-0.0289071,0.0485662,0.850506,0.00347699,-0.00528569,-0.525927,0.870776,-0.0397471,-0.0356996,-0.488769,1
758398550,-0.0392369,-0.018933,0.0180181,0.85061,0.00359232,-0.00530206,-0.525758,0.870776,-0.0397471,-0.0356996,-0.488769,1
758430556,0.0278226,0.0306847,-0.0197179,0.850653,0.00416933,-0.00541695,-0.525684,0.870776,-0.0397471,-0.0356996,-0.488769,1
758462536,-0.0191879,0.044289,0.00684031,0.850722,0.0042789,-0.00486023,-0.525576,0.870776,-0.0397471,-0.0356996,-0.488769,1
