timestamp,ref_timestamp,ref_lat,ref_lon,x,y,z,delta_xy[0],delta_xy[1],delta_z,vx,vy,vz,z_deriv,delta_vxy[0],delta_vxy[1],delta_vz,ax,ay,az,yaw,ref_alt,dist_bottom,dist_bottom_rate,eph,epv,evh,evv,vxy_max,vz_max,hagl_min,hagl_max,xy_valid,z_valid,v_xy_valid,v_z_valid,xy_reset_counter,z_reset_counter,vxy_reset_counter,vz_reset_counter,xy_global,z_global,dist_bottom_valid
743693766,23617696,31.0276903,121.4409744,4.7511,-4.17275,1.1302,0.000512231,0.000809682,0.0,-0.00560216,-0.0040591,-0.00981879,-0.0126235,-0.00535803,-0.00263178,0.038596,-0.0144809,-0.0073172,0.00264769,-1.10528,2.14036,0.102177,0.00981879,0.117526,0.190893,0.0885865,0.0841742,inf,inf,inf,inf,1,1,1,1,2,0,2,2,1,1,0
743793651,23617696,31.0276903,121.4409744,4.75062,-4.17213,1.12949,0.000512231,0.000809682,0.0,-0.00615316,-0.00349395,-0.0096801,-0.012032,-0.00535803,-0.00263178,0.038596,-0.0184804,0.00222657,-0.0182635,-1.10523,2.14036,0.103074,0.0096801,0.111136,0.189488,0.0844634,0.0825135,inf,inf,inf,inf,1,1,1,1,2,0,2,2,1,1,0
743894656,23617696,31.0276903,121.4409744,4.75092,-4.17109,1.12951,0.000512231,0.000809682,0.0,-0.00552327,-0.00338372,-0.00881966,-0.0100876,-0.00535803,-0.00263178,0.038596,-0.0104199,0.0166141,0.0114595,-1.10519,2.14036,0.108866,0.00881966,0.117438,0.190914,0.0885018,0.084171,inf,inf,inf,inf,1,1,1,1,2,0,2,2,1,1,0
743998533,23617696,31.0276903,121.4409744,4.75126,-4.17027,1.13265,0.000512231,0.000809682,0.0,-0.00491226,-0.00284213,-0.00776809,-0.00505363,-0.00535803,-0.00263178,0.038596,-0.00384666,-0.030614,0.0317748,-1.10517,2.14036,0.107798,0.00776809,0.11174,0.189161,0.0849201,0.0825898,inf,inf,inf,inf,1,1,1,1,2,0,2,2,1,1,0
744098597,23617696,31.0276903,121.4409744,4.75167,-4.16968,1.13306,0.000512231,0.000809682,0.0,-0.00389914,-0.00253355,-0.0065394,-0.00309479,-0.00535803,-0.00263178,0.038596,-0.00777257,-0.00273019,-0.0271249,-1.10512,2.14036,0.102049,0.0065394,0.117592,0.190995,0.0886505,0.0842136,inf,inf,inf,inf,1,1,1,1,2,0,2,2,1,1,0
744199301,23617696,31.0276903,121.4409744,4.75175,-4.16921,1.13354,0.000512231,0.000809682,0.0,-0.00352095,-0.00235781,-0.00630797,-0.00224792,-0.00535803,-0.00263178,0.038596,0.00208457,-0.00836073,-0.000191605,-1.10508,2.14036,0.108201,0.00630797,0.11181,0.190019,0.0849887,0.0827679,inf,inf,inf,inf,1,1,1,1,2,0,2,2,1,1,0
744303308,23617696,31.0276903,121.4409744,4.75143,-4.16893,1.13525,0.000512231,0.000809682,0.0,-0.004215,-0.00217496,-0.00518254,0.000534419,-0.00535803,-0.00263178,0.038596,-0.0190104,-0.00848441,0.00895926,-1.10508,2.14036,0.105709,0.00518254,0.118179,0.191432,0.0890327,0.0844145,inf,inf,inf,inf,1,1,1,1,2,0,2,2,1,1,0
744404106,23617696,31.0276903,121.4409744,4.75143,-4.1685,1.13671,0.000512231,0.000809682,0.0,-0.00383554,-0.00209729,-0.00391643,0.00284348,-0.00535803,-0.00263178,0.038596,-0.0411733,-0.0184071,-0.00799357,-1.10499,2.14036,0.104206,0.00391643,0.11246,0.190472,0.0854637,0.0829835,inf,inf,inf,inf,1,1,1,1,2,0,2,2,1,1,0
744504124,23617696,31.0276903,121.4409744,4.7515,-4.16815,1.13693,0.000512231,0.000809682,0.0,-0.003702,-0.00168351,-0.00379081,0.00270922,-0.00535803,-0.00263178,0.038596,0.0145024,0.0142514,0.0573107,-1.1049,2.14036,0.1,0.00379081,0.118378,0.192307,0.0892004,0.084603,inf,inf,inf,inf,1,1,1,1,2,0,2,2,1,1,0
744608118,23617696,31.0276903,121.4409744,4.75157,-4.16759,1.13569,0.000512231,0.000809682,0.0,-0.0030986,-0.00131225,-0.00310881,0.00171795,-0.00535803,-0.00263178,0.038596,0.0201272,0.00412297,-0.00743015,-1.10491,2.14036,0.1,0.00310881,0.11223,0.190232,0.0852386,0.0829227,inf,inf,inf,inf,1,1,1,1,2,0,2,2,1,1,0
744708130,23617696,31.0276903,121.4409744,4.75167,-4.16694,1.1337,0.000512231,0.000809682,0.0,-0.00325937,-0.000862865,-0.00277467,-0.000205853,-0.00535803,-0.00263178,0.038596,-0.00972501,0.0229917,0.0361148,-1.10481,2.14036,0.1,0.00277467,0.118636,0.191637,0.0892884,0.0845648,inf,inf,inf,inf,1,1,1,1,2,0,2,2,1,1,0
744808951,23617696,31.0276903,121.4409744,4.75181,-4.16644,1.13279,0.000512231,0.000809682,0.0,-0.00322297,-0.000785847,-0.00264898,-0.00104064,-0.00535803,-0.00263178,0.038596,-0.0159617,-0.00241316,-0.00841069,-1.10483,2.14036,0.1,0.00264898,0.112143,0.190169,0.0851284,0.0828831,inf,inf,inf,inf,1,1,1,1,2,0,2,2,1,1,0
744908908,23617696,31.0276903,121.4409744,4.75216,-4.16612,1.13084,0.000512231,0.000809682,0.0,-0.00292613,-0.00143925,-0.0030934,-0.0034175,-0.00535803,-0.00263178,0.038596,0.0143096,0.016838,0.0113453,-1.1048,2.14036,0.1,0.0030934,0.118538,0.192423,0.0891769,0.0846841,inf,inf,inf,inf,1,1,1,1,2,0,2,2,1,1,0
745012909,23617696,31.0276903,121.4409744,4.75249,-4.16603,1.12894,0.000512231,0.000809682,0.0,-0.00234341,-0.000877972,-0.00279799,-0.0046307,-0.00535803,-0.00263178,0.038596,-0.0169155,0.0104715,0.0114857,-1.10466,2.14036,0.100358,0.00279799,0.112738,0.191407,0.0855558,0.0832205,inf,inf,inf,inf,1,1,1,1,2,0,2,2,1,1,0
745113684,23617696,31.0276903,121.4409744,4.75276,-4.16608,1.12912,0.000512231,0.000809682,0.0,-0.00181396,-0.000882029,-0.00164609,-0.00290853,-0.00535803,-0.00263178,0.038596,-0.0131962,0.00994778,-0.00223337,-1.10469,2.14036,0.101664,0.00164609,0.118668,0.192342,0.0892953,0.0846623,inf,inf,inf,inf,1,1,1,1,2,0,2,2,1,1,0
745213661,23617696,31.0276903,121.4409744,4.75269,-4.16638,1.12902,0.000512231,0.000809682,0.0,-0.00144853,-0.000674541,-0.00240403,-0.00348945,-0.00535803,-0.00263178,0.038596,-0.0113686,0.00715095,-0.0381423,-1.10464,2.14036,0.1,0.00240403,0.11293,0.191346,0.085743,0.0832242,inf,inf,inf,inf,1,1,1,1,2,0,2,2,1,1,0
745317773,23617696,31.0276903,121.4409744,4.75246,-4.16685,1.1272,0.000512231,0.000809682,0.0,-0.00214703,-0.00143848,-0.00436754,-0.00679518,-0.00535803,-0.00263178,0.038596,0.002701,0.0109561,-0.00309857,-1.10454,2.14036,0.1,0.00436754,0.119398,0.192741,0.0897999,0.0848622,inf,inf,inf,inf,1,1,1,1,2,0,2,2,1,1,0
745418669,23617696,31.0276903,121.4409744,4.75178,-4.16733,1.12718,0.000512231,0.000809682,0.0,-0.00254736,-0.00311042,-0.00441747,-0.00618895,-0.00535803,-0.00263178,0.038596,0.0138672,0.00896893,-0.00124174,-1.10456,2.14036,0.10228,0.00441747,0.113049,0.191233,0.0858472,0.0832135,inf,inf,inf,inf,1,1,1,1,2,0,2,2,1,1,0
745518618,23617696,31.0276903,121.4409744,4.751,-4.16795,1.12566,0.000512231,0.000809682,0.0,-0.00345729,-0.00352336,-0.00496705,-0.00752511,-0.00535803,-0.00263178,0.038596,-0.0195633,0.00957366,-0.0219962,-1.10449,2.14036,0.102526,0.00496705,0.119531,0.19261,0.0899081,0.0848455,inf,inf,inf,inf,1,1,1,1,2,0,2,2,1,1,0
745622634,23617696,31.0276903,121.4409744,4.75071,-4.16861,1.12516,0.000512231,0.000809682,0.0,-0.00302969,-0.00545617,-0.0061779,-0.00833397,-0.00535803,-0.00263178,0.038596,0.0032585,-0.015717,0.0161744,-1.10444,2.14036,0.103758,0.0061779,0.113512,0.191575,0.0860953,0.0833612,inf,inf,inf,inf,1,1,1,1,2,0,2,2,1,1,0
745722509,23617696,31.0276903,121.4409744,4.7507,-4.1694,1.12456,0.000512231,0.000809682,0.0,-0.00270485,-0.00614416,-0.0060853,-0.0079908,-0.00535803,-0.00263178,0.038596,0.0201701,-0.0114841,0.0102251,-1.10443,2.14036,0.102021,0.0060853,0.119506,0.193365,0.0898408,0.0849609,inf,inf,inf,inf,1,1,1,1,2,0,2,2,1,1,0
745823293,23617696,31.0276903,121.4409744,4.75053,-4.16952,1.12614,0.000512231,0.000809682,0.0,-0.00216035,-0.00639074,-0.00503897,-0.00455174,-0.00535803,-0.00263178,0.038596,-0.0239552,0.00669244,0.0135348,-1.10435,2.14036,0.108197,0.00503897,0.113449,0.192226,0.0860108,0.0834448,inf,inf,inf,inf,1,1,1,1,2,0,2,2,1,1,0
745927439,23617696,31.0276903,121.4409744,4.75023,-4.16939,1.12866,0.000512231,0.000809682,0.0,-0.00230747,-0.00528801,-0.00468214,-0.00134813,-0.00535803,-0.00263178,0.038596,-0.00251623,0.00763719,-0.0122451,-1.10426,2.14036,0.10492,0.00468214,0.120002,0.194487,0.0901082,0.0852365,inf,inf,inf,inf,1,1,1,1,2,0,2,2,1,1,0
746028058,23617696,31.0276903,121.4409744,4.75174,-4.16842,1.13054,0.000512231,0.000809682,0.0,-0.000327155,-0.00489401,-0.00303072,0.00207511,-0.00535803,-0.00263178,0.038596,-0.0084826,-0.0227025,0.0222026,-1.10423,2.14036,0.102846,0.00303072,0.114076,0.192416,0.0864565,0.0835709,inf,inf,inf,inf,1,1,1,1,2,0,2,2,1,1,0
746128058,23617696,31.0276903,121.4409744,4.75324,-4.16775,1.13086,0.000512231,0.000809682,0.0,0.00149852,-0.00490255,-0.00244034,0.00263895,-0.00535803,-0.00263178,0.038596,0.0125637,-0.00401588,-0.0202377,-1.10422,2.14036,0.103185,0.00244034,0.120113,0.194202,0.0902088,0.085171,inf,inf,inf,inf,1,1,1,1,2,0,2,2,1,1,0
746232102,23617696,31.0276903,121.4409744,4.75524,-4.1675,1.13128,0.000512231,0.000809682,0.0,0.00390639,-0.00427399,-0.000969805,0.00395956,-0.00535803,-0.00263178,0.038596,-0.0107573,0.0343155,0.0137127,-1.10412,2.14036,0.1,0.000969805,0.114052,0.192005,0.0864716,0.0835132,inf,inf,inf,inf,1,1,1,1,2,0,2,2,1,1,0
746332227,23617696,31.0276903,121.4409744,4.7571,-4.16741,1.1308,0.000512231,0.000809682,0.0,0.00565998,-0.00415794,-0.00112634,0.0027931,-0.00535803,-0.00263178,0.038596,0.0308584,0.0225615,0.00383508,-1.10412,2.14036,0.1,0.00112634,0.120616,0.193347,0.0905362,0.0851348,inf,inf,inf,inf,1,1,1,1,2,0,2,2,1,1,0
746433048,23617696,31.0276903,121.4409744,4.75877,-4.16644,1.12703,0.000512231,0.000809682,0.0,0.0070501,-0.00352945,-0.00331965,-0.00341188,-0.00535803,-0.00263178,0.038596,-0.0124183,0.0149207,-0.0186381,-1.10409,2.14036,0.1,0.00331965,0.114231,0.191818,0.0866287,0.0835091,inf,inf,inf,inf,1,1,1,1,2,0,2,2,1,1,0
746533038,23617696,31.0276903,121.4409744,4.76038,-4.16572,1.12416,0.000512231,0.000809682,0.0,0.00820946,-0.00448606,-0.00439131,-0.00692477,-0.00535803,-0.00263178,0.038596,0.0386521,-0.0132077,-0.0254819,-1.10401,2.14036,0.1,0.00439131,0.120869,0.193234,0.0907383,0.0851532,inf,inf,inf,inf,1,1,1,1,2,0,2,2,1,1,0
746636956,23617696,31.0276903,121.4409744,4.76229,-4.164,1.1244,0.000512231,0.000809682,0.0,0.00930494,-0.00283627,-0.00365166,-0.00514309,-0.00535803,-0.00263178,0.038596,0.0183885,0.0105087,0.000902963,-1.10397,2.14036,0.102693,0.00365166,0.114916,0.191287,0.087087,0.0835555,inf,inf,inf,inf,1,1,1,1,2,0,2,2,1,1,0
746737732,23617696,31.0276903,121.4409744,4.76398,-4.16282,1.12492,0.000512231,0.000809682,0.0,0.0111971,-0.00283736,-0.00409415,-0.00446811,-0.00535803,-0.00263178,0.038596,-0.00514185,-0.0121976,-0.0216561,-1.104,2.14036,0.101741,0.00409415,0.12103,0.193111,0.0908467,0.0851724,inf,inf,inf,inf,1,1,1,1,2,0,2,2,1,1,0
746837701,23617696,31.0276903,121.4409744,4.76585,-4.16139,1.12513,0.000512231,0.000809682,0.0,0.0124307,-0.00196655,-0.00303742,-0.00270206,-0.00535803,-0.00263178,0.038596,-0.000527861,0.00657244,-0.000101577,-1.10396,2.14036,0.1,0.00303742,0.114705,0.191157,0.0868128,0.0835084,inf,inf,inf,inf,1,1,1,1,2,0,2,2,1,1,0
746941648,23617696,31.0276903,121.4409744,4.76777,-4.16017,1.12488,0.000512231,0.000809682,0.0,0.0141267,-0.00159507,-0.00239975,-0.00205103,-0.00535803,-0.00263178,0.038596,-0.00843357,-0.0136486,-0.011772,-1.104,2.14036,0.1003,0.00239975,0.121367,0.192588,0.0909252,0.0851523,inf,inf,inf,inf,1,1,1,1,2,0,2,2,1,1,0
747042621,23617696,31.0276903,121.4409744,4.77033,-4.15906,1.12466,0.000512231,0.000809682,0.0,0.0157269,-0.00117652,-0.00195528,-0.00169232,-0.00535803,-0.00263178,0.038596,0.00195185,0.00939484,-0.00336259,-1.10401,2.14036,0.1,0.00195528,0.115298,0.191524,0.0872075,0.0837109,inf,inf,inf,inf,1,1,1,1,2,0,2,2,1,1,0
747142526,23617696,31.0276903,121.4409744,4.77269,-4.15837,1.12624,0.000512231,0.000809682,0.0,0.016509,-0.00118828,-0.000947659,0.000960769,-0.00535803,-0.00263178,0.038596,-0.0146951,0.025989,0.0142424,-1.10398,2.14036,0.106146,0.000947659,0.121426,0.193347,0.0909661,0.0853219,inf,inf,inf,inf,1,1,1,1,2,0,2,2,1,1,0
747246682,23617696,31.0276903,121.4409744,4.77363,-4.15708,1.12971,0.000512231,0.000809682,0.0,0.0169332,0.000619103,0.000324468,0.0054216,-0.00535803,-0.00263178,0.038596,0.0170732,0.00401551,-0.0295438,-1.10401,2.14036,0.109465,-0.000324468,0.115064,0.19208,0.08701,0.0838208,inf,inf,inf,inf,1,1,1,1,2,0,2,2,1,1,0
747347470,23617696,31.0276903,121.4409744,4.77447,-4.15603,1.13315,0.000512231,0.000809682,0.0,0.01798,0.000776014,0.00110784,0.00879752,-0.00535803,-0.00263178,0.038596,0.0221126,0.035771,-0.0446868,-1.1034,2.14036,0.104901,-0.00110784,0.109471,0.19017,0.0833797,0.0821778,inf,inf,inf,inf,1,1,1,1,2,0,2,2,1,1,0
747447502,23617696,31.0276903,121.4409744,4.77336,-4.1551,1.1349,0.000512231,0.000809682,0.0,0.0154452,0.00141321,0.000903792,0.0092198,-0.00535803,-0.00263178,0.038596,0.0428265,0.000676691,-0.018839,-1.10392,2.14036,0.100622,-0.000903792,0.115149,0.191923,0.0870966,0.0838053,inf,inf,inf,inf,1,1,1,1,2,0,2,2,1,1,0
747551358,23617696,31.0276903,121.4409744,4.77253,-4.15425,1.13541,0.000512231,0.000809682,0.0,0.0146231,0.00136582,0.000574014,0.00822268,-0.00535803,-0.00263178,0.038596,-0.0506321,0.0149226,-0.0830526,-1.1039,2.14036,0.1,-0.000574014,0.121845,0.193358,0.0912093,0.0854484,inf,inf,inf,inf,1,1,1,1,2,0,2,2,1,1,0
747652149,23617696,31.0276903,121.4409744,4.77279,-4.15504,1.1318,0.000512231,0.000809682,0.0,0.0144249,0.000927979,-0.00117053,0.00189678,-0.00535803,-0.00263178,0.038596,-0.129222,-0.0444462,0.123232,-1.10387,2.14036,0.1,0.00117053,0.115496,0.191394,0.0872409,0.083785,inf,inf,inf,inf,1,1,1,1,2,0,2,2,1,1,0
747752136,23617696,31.0276903,121.4409744,4.77346,-4.15595,1.12768,0.000512231,0.000809682,0.0,0.0152041,-0.000855797,-0.00396465,-0.00501186,-0.00535803,-0.00263178,0.038596,-0.210931,-0.0756117,-0.00653061,-1.10513,2.14036,0.1,0.00396465,0.121627,0.193233,0.0909977,0.0853989,inf,inf,inf,inf,1,1,1,1,2,0,2,2,1,1,0
747856056,23617696,31.0276903,121.4409744,4.77334,-4.15624,1.12092,0.000512231,0.000809682,0.0,0.0151735,0.000245927,-0.00829111,-0.0151558,-0.00535803,-0.00263178,0.038596,0.172247,-0.102766,0.0816305,-1.10414,2.14036,0.1,0.00829111,0.115462,0.192187,0.0872173,0.0839277,inf,inf,inf,inf,1,1,1,1,2,0,2,2,1,1,0
747956960,23617696,31.0276903,121.4409744,4.77321,-4.15666,1.11458,0.000512231,0.000809682,0.0,0.0150775,-0.00235118,-0.0116564,-0.0226871,-0.00535803,-0.00263178,0.038596,0.163384,0.0400519,-0.0724461,-1.10387,2.14036,0.105877,0.0116564,0.109852,0.190279,0.0836112,0.0822893,inf,inf,inf,inf,1,1,1,1,2,0,2,2,1,1,0
748056944,23617696,31.0276903,121.4409744,4.77209,-4.15712,1.10915,0.000512231,0.000809682,0.0,0.0126569,-0.00149378,-0.0138888,-0.0275109,-0.00535803,-0.00263178,0.038596,0.161055,0.145915,-0.129455,-1.10431,2.14036,0.111304,0.0138888,0.115552,0.192033,0.087334,0.0839119,inf,inf,inf,inf,1,1,1,1,2,0,2,2,1,1,0
748156966,23617696,31.0276903,121.4409744,4.77106,-4.15758,1.10421,0.000512231,0.000809682,0.0,0.0131221,-0.00193977,-0.0151241,-0.0302455,-0.00535803,-0.00263178,0.038596,0.152029,0.245798,0.190524,-1.10492,2.14036,0.116242,0.0151241,0.10996,0.19101,0.0837324,0.0824323,inf,inf,inf,inf,1,1,1,1,2,0,2,2,1,1,0
748260922,23617696,31.0276903,121.4409744,4.76907,-4.15748,1.10106,0.000512231,0.000809682,0.0,0.00937284,-0.00271368,-0.016719,-0.0313493,-0.00535803,-0.00263178,0.038596,0.0807054,-0.402069,0.112888,-1.10371,2.14036,0.119394,0.016719,0.116169,0.19232,0.087765,0.0840753,inf,inf,inf,inf,1,1,1,1,2,0,2,2,1,1,0
748361688,23617696,31.0276903,121.4409744,4.76744,-4.15739,1.09745,0.000512231,0.000809682,0.0,0.00760378,-0.00146104,-0.0171745,-0.0319276,-0.00535803,-0.00263178,0.038596,0.224676,0.162387,-0.0230987,-1.10374,2.14036,0.123001,0.0171745,0.110092,0.190832,0.0838755,0.0824204,inf,inf,inf,inf,1,1,1,1,2,0,2,2,1,1,0
748461760,23617696,31.0276903,121.4409744,4.76516,-4.15734,1.09388,0.000512231,0.000809682,0.0,0.00593905,-0.00287195,-0.0192979,-0.033988,-0.00535803,-0.00263178,0.038596,0.018048,-0.0669499,-0.0619666,-1.10365,2.14036,0.126573,0.0192979,0.116321,0.192157,0.0879126,0.0840693,inf,inf,inf,inf,1,1,1,1,2,0,2,2,1,1,0
748565718,23617696,31.0276903,121.4409744,4.76353,-4.15748,1.09176,0.000512231,0.000809682,0.0,0.0045619,-0.00227242,-0.0179612,-0.0310519,-0.00535803,-0.00263178,0.038596,0.041885,0.0292212,-0.0328669,-1.10366,2.14036,0.128691,0.0179612,0.123117,0.193591,0.0920351,0.0857016,inf,inf,inf,inf,1,1,1,1,2,0,2,2,1,1,0
748666621,23617696,31.0276903,121.4409744,4.76268,-4.15626,1.09371,0.000512231,0.000809682,0.0,0.0047708,-0.00118379,-0.0154946,-0.0235188,-0.00535803,-0.00263178,0.038596,0.480555,-0.0958367,0.0590253,-1.10372,2.14036,0.126745,0.0154946,0.116644,0.191603,0.0880121,0.0840343,inf,inf,inf,inf,1,1,1,1,2,0,2,2,1,1,0
748766594,23617696,31.0276903,121.4409744,4.76231,-4.15542,1.09251,0.000512231,0.000809682,0.0,0.00382188,-0.00219838,-0.0132303,-0.0201707,-0.00535803,-0.00263178,0.038596,-0.359491,-0.167962,0.184536,-1.10374,2.14036,0.127942,0.0132303,0.122862,0.193454,0.091776,0.0856448,inf,inf,inf,inf,1,1,1,1,2,0,2,2,1,1,0
748870536,23617696,31.0276903,121.4409744,4.76132,-4.15261,1.09091,0.000512231,0.000809682,0.0,0.00569902,0.00231766,-0.0133831,-0.0197656,-0.00535803,-0.00263178,0.038596,0.145348,0.358312,-0.123879,-1.10369,2.14036,0.12954,0.0133831,0.116251,0.192195,0.0876697,0.0841287,inf,inf,inf,inf,1,1,1,1,2,0,2,2,1,1,0
748971335,23617696,31.0276903,121.4409744,4.76062,-4.15001,1.09049,0.000512231,0.000809682,0.0,0.00530211,0.00319934,-0.0124667,-0.0173902,-0.00535803,-0.00263178,0.038596,0.173146,0.022472,0.0913003,-1.10379,2.14036,0.129965,0.0124667,0.110538,0.190282,0.0840177,0.0824821,inf,inf,inf,inf,1,1,1,1,2,0,2,2,1,1,0
749071302,23617696,31.0276903,121.4409744,4.75983,-4.14725,1.08815,0.000512231,0.000809682,0.0,0.00473056,0.00534912,-0.0136497,-0.0191314,-0.00535803,-0.00263178,0.038596,0.331497,0.153128,-0.281757,-1.10364,2.14036,0.132303,0.0136497,0.116287,0.192923,0.0877367,0.0842686,inf,inf,inf,inf,1,1,1,1,2,0,2,2,1,1,0
749175268,23617696,31.0276903,121.4409744,4.75936,-4.14483,1.08634,0.000512231,0.000809682,0.0,0.00683943,0.00821184,-0.0140586,-0.0192753,-0.00535803,-0.00263178,0.038596,0.661201,0.155845,0.073079,-1.10373,2.14036,0.134113,0.0140586,0.110603,0.191002,0.0840985,0.0826103,inf,inf,inf,inf,1,1,1,1,2,0,2,2,1,1,0
749276068,23617696,31.0276903,121.4409744,4.75914,-4.14322,1.08514,0.000512231,0.000809682,0.0,0.00627539,0.00618683,-0.0146966,-0.0189637,-0.00535803,-0.00263178,0.038596,-0.213139,-0.657095,0.558929,-1.1037,2.14036,0.135313,0.0146966,0.11686,0.192322,0.0881334,0.0842498,inf,inf,inf,inf,1,1,1,1,2,0,2,2,1,1,0
749376124,23617696,31.0276903,121.4409744,4.7591,-4.14186,1.08558,0.000512231,0.000809682,0.0,0.00309399,0.00830029,-0.0141889,-0.0160704,-0.00535803,-0.00263178,0.038596,-0.632564,0.155199,0.1575,-1.10355,2.14036,0.13487,0.0141889,0.110669,0.190873,0.0841724,0.0825853,inf,inf,inf,inf,1,1,1,1,2,0,2,2,1,1,0
749480099,23617696,31.0276903,121.4409744,4.75888,-4.14039,1.08498,0.000512231,0.000809682,0.0,0.00674574,0.00797384,-0.0162606,-0.0168563,-0.00535803,-0.00263178,0.038596,1.19957,0.460426,0.303705,-1.10368,2.14036,0.135477,0.0162606,0.116934,0.192209,0.0882133,0.0842315,inf,inf,inf,inf,1,1,1,1,2,0,2,2,1,1,0
749580898,23617696,31.0276903,121.4409744,4.75876,-4.13928,1.08518,0.000512231,0.000809682,0.0,0.00610479,0.00747948,-0.0152442,-0.0139877,-0.00535803,-0.00263178,0.038596,0.474906,-0.729097,0.22012,-1.10361,2.14036,0.135274,0.0152442,0.111068,0.19029,0.0844181,0.0825719,inf,inf,inf,inf,1,1,1,1,2,0,2,2,1,1,0
749680874,23617696,31.0276903,121.4409744,4.75862,-4.13835,1.08541,0.000512231,0.000809682,0.0,0.0012309,0.00894724,-0.0137231,-0.0110209,-0.00535803,-0.00263178,0.038596,-0.465748,1.06169,-0.304028,-1.10359,2.14036,0.135042,0.0137231,0.116862,0.192068,0.0881413,0.0841944,inf,inf,inf,inf,1,1,1,1,2,0,2,2,1,1,0
749780865,23617696,31.0276903,121.4409744,4.75889,-4.13769,1.08612,0.000512231,0.000809682,0.0,0.00548182,0.0079728,-0.0143826,-0.00998474,-0.00535803,-0.00263178,0.038596,-0.165206,0.984635,-0.747598,-1.10352,2.14036,0.134337,0.0143826,0.11105,0.190214,0.0843966,0.0825531,inf,inf,inf,inf,1,1,1,1,2,0,2,2,1,1,0
749884931,23617696,31.0276903,121.4409744,4.75958,-4.13729,1.08892,0.000512231,0.000809682,0.0,0.00531379,0.00578429,-0.0112677,-0.00340567,-0.00535803,-0.00263178,0.038596,-0.867875,-0.209274,0.601517,-1.1035,2.14036,0.131536,0.0112677,0.117343,0.191566,0.0884312,0.0841999,inf,inf,inf,inf,1,1,1,1,2,0,2,2,1,1,0
749985725,23617696,31.0276903,121.4409744,4.75987,-4.13685,1.091,0.000512231,0.000809682,0.0,0.00319196,0.00754884,-0.00985122,0.000117688,-0.00535803,-0.00263178,0.038596,0.10983,-0.145425,0.253634,-1.10348,2.14036,0.129457,0.00985122,0.111541,0.19056,0.084755,0.0827419,inf,inf,inf,inf,1,1,1,1,2,0,2,2,1,1,0
750085637,23617696,31.0276903,121.4409744,4.75975,-4.13612,1.0946,0.000512231,0.000809682,0.0,0.00393755,0.00851662,-0.00987775,0.00325625,-0.00535803,-0.00263178,0.038596,0.350148,-0.396738,-0.379046,-1.10348,2.14036,0.125854,0.00987775,0.117169,0.191306,0.088335,0.0841711,inf,inf,inf,inf,1,1,1,1,2,0,2,2,1,1,0
750189689,23617696,31.0276903,121.4409744,4.75976,-4.13557,1.09918,0.000512231,0.000809682,0.0,0.00187422,0.00815414,-0.00523963,0.0113613,-0.00535803,-0.00263178,0.038596,-0.661327,-0.368148,0.0467891,-1.10335,2.14036,0.121276,0.00523963,0.111327,0.190306,0.0845887,0.0827007,inf,inf,inf,inf,1,1,1,1,2,0,2,2,1,1,0
750290579,23617696,31.0276903,121.4409744,4.75989,-4.13529,1.10519,0.000512231,0.000809682,0.0,0.00860952,0.00808206,-0.00463812,0.0161829,-0.00535803,-0.00263178,0.038596,1.12427,0.280451,0.192612,-1.1034,2.14036,0.115261,0.00463812,0.117646,0.191695,0.0886316,0.0843591,inf,inf,inf,inf,1,1,1,1,2,0,2,2,1,1,0
750390578,23617696,31.0276903,121.4409744,4.76071,-4.13521,1.11219,0.000512231,0.000809682,0.0,0.00249132,0.00496368,-0.00301334,0.0222162,-0.00535803,-0.00263178,0.038596,-0.181003,0.19109,-0.337938,-1.10334,2.14036,0.108259,0.00301334,0.11151,0.189673,0.0846572,0.0826876,inf,inf,inf,inf,1,1,1,1,2,0,2,2,1,1,0
750494563,23617696,31.0276903,121.4409744,4.76252,-4.13523,1.11917,0.000512231,0.000809682,0.0,0.00898596,0.00828183,0.00218302,0.0310388,-0.00535803,-0.00263178,0.038596,0.436322,1.77819,0.0667236,-1.10344,2.14036,0.10128,-0.00218302,0.11784,0.191081,0.088707,0.0843488,inf,inf,inf,inf,1,1,1,1,2,0,2,2,1,1,0
750595313,23617696,31.0276903,121.4409744,4.76358,-4.13472,1.1248,0.000512231,0.000809682,0.0,0.00520559,0.0094036,0.000561538,0.0315073,-0.00535803,-0.00263178,0.038596,-1.07768,0.437578,-0.889109,-1.10347,2.14036,0.1,-0.000561538,0.111455,0.189685,0.0846214,0.0826966,inf,inf,inf,inf,1,1,1,1,2,0,2,2,1,1,0
750695499,23617696,31.0276903,121.4409744,4.76357,-4.13344,1.13068,0.000512231,0.000809682,0.0,0.00922913,0.00270935,0.0044074,0.0370581,-0.00535803,-0.00263178,0.038596,1.05126,-0.512342,0.484677,-1.10334,2.14036,0.1,-0.0044074,0.11778,0.191112,0.0886632,0.0843629,inf,inf,inf,inf,1,1,1,1,2,0,2,2,1,1,0
750799409,23617696,31.0276903,121.4409744,4.76409,-4.13261,1.13367,0.000512231,0.000809682,0.0,0.0112138,0.00252912,0.0033732,0.0345708,-0.00535803,-0.00263178,0.038596,-0.891346,-0.617373,-0.765835,-1.10348,2.14036,0.1,-0.0033732,0.111677,0.189333,0.0846791,0.0826994,inf,inf,inf,inf,1,1,1,1,2,0,2,2,1,1,0
750900092,23617696,31.0276903,121.4409744,4.76449,-4.13197,1.13765,0.000512231,0.000809682,0.0,0.00969154,0.00654271,0.00596015,0.0371189,-0.00535803,-0.00263178,0.038596,-0.528891,-0.468674,1.04439,-1.10339,2.14036,0.1,-0.00596015,0.117501,0.191188,0.0884169,0.0843378,inf,inf,inf,inf,1,1,1,1,2,0,2,2,1,1,0
751000066,23617696,31.0276903,121.4409744,4.76452,-4.13185,1.14397,0.000512231,0.000809682,0.0,0.0138242,0.00535802,0.00873768,0.0414461,-0.00535803,-0.00263178,0.038596,0.993192,0.500834,-1.4115,-1.10329,2.14036,0.1,-0.00873768,0.111783,0.189441,0.0848438,0.0827497,inf,inf,inf,inf,1,1,1,1,2,0,2,2,1,1,0
751104100,23617696,31.0276903,121.4409744,4.76409,-4.13172,1.14861,0.000512231,0.000809682,0.0,0.00684308,0.0146416,0.0123572,0.0443208,-0.00535803,-0.00263178,0.038596,-1.85917,0.676199,-0.316933,-1.10324,2.14036,0.1,-0.0123572,0.118131,0.190885,0.0888846,0.084412,inf,inf,inf,inf,1,1,1,1,2,0,2,2,1,1,0
751204881,23617696,31.0276903,121.4409744,4.76392,-4.13089,1.14919,0.000512231,0.000809682,0.0,0.0139029,0.00936442,0.0115768,0.0392564,-0.00535803,-0.00263178,0.038596,1.09889,0.484063,-0.709572,-1.10335,2.14036,0.1,-0.0115768,0.111912,0.189516,0.0849924,0.0828019,inf,inf,inf,inf,1,1,1,1,2,0,2,2,1,1,0
751304996,23617696,31.0276903,121.4409744,4.76368,-4.12979,1.14859,0.000512231,0.000809682,0.0,0.0137197,0.0145628,0.0028778,0.0258524,-0.00535803,-0.00263178,0.038596,1.66645,0.706807,-1.01514,-1.10306,2.14036,0.1,-0.0028778,0.11828,0.190963,0.0890522,0.0844638,inf,inf,inf,inf,1,1,1,1,2,0,2,2,1,1,0
751404925,23617696,31.0276903,121.4409744,4.76309,-4.12871,1.15058,0.000512231,0.000809682,0.0,0.00803928,0.00610121,0.00789617,0.0297163,-0.00535803,-0.00263178,0.038596,0.75189,-0.744943,-1.21888,-1.10328,2.14036,0.1,-0.00789617,0.111988,0.189619,0.0850974,0.0828362,inf,inf,inf,inf,1,1,1,1,2,0,2,2,1,1,0
751509815,23617696,31.0276903,121.4409744,4.76198,-4.12746,1.15567,0.000512231,0.000809682,0.0,-0.00048435,0.00956748,0.0080119,0.0312476,-0.00535803,-0.00263178,0.038596,-1.59974,-1.25467,-0.498424,-1.10317,2.14036,0.1,-0.0080119,0.118367,0.191065,0.0891446,0.0844946,inf,inf,inf,inf,1,1,1,1,2,0,2,2,1,1,0
751609737,23617696,31.0276903,121.4409744,4.76106,-4.12632,1.15997,0.000512231,0.000809682,0.0,0.00748339,0.0124972,0.00914728,0.0329969,-0.00535803,-0.00263178,0.038596,-2.20667,-0.624112,-0.0547532,-1.10318,2.14036,0.1,-0.00914728,0.112251,0.189239,0.0851545,0.0828304,inf,inf,inf,inf,1,1,1,1,2,0,2,2,1,1,0
751709720,23617696,31.0276903,121.4409744,4.75986,-4.12503,1.16407,0.000512231,0.000809682,0.0,0.00187598,0.0121544,0.0115506,0.0357963,-0.00535803,-0.00263178,0.038596,-0.705118,-1.16836,-0.666046,-1.1031,2.14036,0.1,-0.0115506,0.118182,0.191143,0.0889474,0.0844676,inf,inf,inf,inf,1,1,1,1,2,0,2,2,1,1,0
751813653,23617696,31.0276903,121.4409744,4.75891,-4.12428,1.16887,0.000512231,0.000809682,0.0,0.00190891,0.00838613,0.0119104,0.036794,-0.00535803,-0.00263178,0.038596,-0.589639,-0.495224,0.17144,-1.10319,2.14036,0.1,-0.0119104,0.112186,0.189335,0.0851116,0.0828297,inf,inf,inf,inf,1,1,1,1,2,0,2,2,1,1,0
751914600,23617696,31.0276903,121.4409744,4.75821,-4.12396,1.17419,0.000512231,0.000809682,0.0,-0.00171383,0.0133706,0.0118878,0.0377713,-0.00535803,-0.00263178,0.038596,0.135994,-0.0300551,-0.201026,-1.10287,2.14036,0.1,-0.0118878,0.118568,0.190792,0.0891579,0.0844847,inf,inf,inf,inf,1,1,1,1,2,0,2,2,1,1,0
752014499,23617696,31.0276903,121.4409744,4.75747,-4.12388,1.17851,0.000512231,0.000809682,0.0,-0.00217604,0.00863981,0.0140752,0.0399958,-0.00535803,-0.00263178,0.038596,-0.157582,-0.147295,0.932426,-1.10329,2.14036,0.1,-0.0140752,0.112298,0.189468,0.0852455,0.0828734,inf,inf,inf,inf,1,1,1,1,2,0,2,2,1,1,0
752114579,23617696,31.0276903,121.4409744,4.7568,-4.12414,1.18383,0.000512231,0.000809682,0.0,0.000363657,0.0121584,0.00451738,0.0319042,-0.00535803,-0.00263178,0.038596,1.0547,-0.781563,-0.348375,-1.10306,2.14036,0.1,-0.00451738,0.118696,0.191785,0.0892949,0.0846933,inf,inf,inf,inf,1,1,1,1,2,0,2,2,1,1,0
752219320,23617696,31.0276903,121.4409744,4.75603,-4.12467,1.18924,0.000512231,0.000809682,0.0,-0.000855861,-0.00192182,0.00879973,0.03762,-0.00535803,-0.00263178,0.038596,0.183314,-0.113222,-0.187486,-1.10309,2.14036,0.1,-0.00879973,0.112822,0.189946,0.0856412,0.0830745,inf,inf,inf,inf,1,1,1,1,2,0,2,2,1,1,0
752319311,23617696,31.0276903,121.4409744,4.75581,-4.12585,1.19206,0.000512231,0.000809682,0.0,0.00227758,0.00212217,0.00672315,0.0343606,-0.00535803,-0.00263178,0.038596,0.0476258,0.516793,-1.38897,-1.10317,2.14036,0.1,-0.00672315,0.118805,0.190992,0.0894431,0.0845398,inf,inf,inf,inf,1,1,1,1,2,0,2,2,1,1,0
752423384,23617696,31.0276903,121.4409744,4.75513,-4.12635,1.19495,0.000512231,0.000809682,0.0,-0.000785538,0.00121212,0.009484,0.0359184,-0.00535803,-0.00263178,0.038596,0.183698,-0.574984,-0.138201,-1.10313,2.14036,0.1,-0.009484,0.112988,0.190045,0.0858072,0.0831141,inf,inf,inf,inf,1,1,1,1,2,0,2,2,1,1,0
752524189,23617696,31.0276903,121.4409744,4.75428,-4.12636,1.19915,0.000512231,0.000809682,0.0,0.00162863,0.00513055,0.00930993,0.0361695,-0.00535803,-0.00263178,0.038596,-0.128089,-0.648266,-0.122708,-1.10304,2.14036,0.1,-0.00930993,0.119458,0.191508,0.0898616,0.0847646,inf,inf,inf,inf,1,1,1,1,2,0,2,2,1,1,0
752624105,23617696,31.0276903,121.4409744,4.75362,-4.12585,1.20139,0.000512231,0.000809682,0.0,-0.00194964,0.00353873,0.0117992,0.0371089,-0.00535803,-0.00263178,0.038596,-0.942737,-1.89203,0.613162,-1.10305,2.14036,0.1,-0.0117992,0.113144,0.190133,0.0859558,0.0831466,inf,inf,inf,inf,1,1,1,1,2,0,2,2,1,1,0
752728163,23617696,31.0276903,121.4409744,4.7529,-4.12509,1.20198,0.000512231,0.000809682,0.0,-0.00850321,0.0117177,0.00865483,0.0307755,-0.00535803,-0.00263178,0.038596,-1.17863,-0.515669,0.909647,-1.10291,2.14036,0.1,-0.00865483,0.119629,0.19244,0.0899973,0.0849556,inf,inf,inf,inf,1,1,1,1,2,0,2,2,1,1,0
752828886,23617696,31.0276903,121.4409744,4.75251,-4.12382,1.2095,0.000512231,0.000809682,0.0,-0.00260558,0.0124731,0.0118792,0.0384645,-0.00535803,-0.00263178,0.038596,1.4287,-0.620441,0.481426,-1.10317,2.14036,0.1,-0.0118792,0.113463,0.190535,0.0860392,0.0832811,inf,inf,inf,inf,1,1,1,1,2,0,2,2,1,1,0
752928905,23617696,31.0276903,121.4409744,4.75302,-4.12306,1.21552,0.000512231,0.000809682,0.0,-0.00211834,0.00982645,0.00845789,0.0374787,-0.00535803,-0.00263178,0.038596,-0.674125,-0.303288,0.733721,-1.10321,2.14036,0.1,-0.00845789,0.119499,0.193318,0.0898292,0.085077,inf,inf,inf,inf,1,1,1,1,2,0,2,2,1,1,0
753028964,23617696,31.0276903,121.4409744,4.75333,-4.12253,1.22156,0.000512231,0.000809682,0.0,-0.00888606,0.0176282,0.0134467,0.0439763,-0.00535803,-0.00263178,0.038596,0.827451,0.274029,-0.945334,-1.10315,2.14036,0.1,-0.0134467,0.113606,0.191367,0.086186,0.0834321,inf,inf,inf,inf,1,1,1,1,2,0,2,2,1,1,0
753133699,23617696,31.0276903,121.4409744,4.75275,-4.1215,1.22457,0.000512231,0.000809682,0.0,-0.0166995,0.0115908,0.0170847,0.0454535,-0.00535803,-0.00263178,0.038596,0.355778,-0.443433,-0.551157,-1.10349,2.14036,0.1,-0.0170847,0.120127,0.192785,0.090244,0.0850636,inf,inf,inf,inf,1,1,1,1,2,0,2,2,1,1,0
753233642,23617696,31.0276903,121.4409744,4.7527,-4.12108,1.22591,0.000512231,0.000809682,0.0,-0.0178446,0.0162625,0.00814176,0.0337269,-0.00535803,-0.00263178,0.038596,-1.07705,0.45277,-0.488152,-1.10298,2.14036,0.1,-0.00814176,0.11369,0.191295,0.0862381,0.0834164,inf,inf,inf,inf,1,1,1,1,2,0,2,2,1,1,0
753333805,23617696,31.0276903,121.4409744,4.75283,-4.12059,1.23049,0.000512231,0.000809682,0.0,-0.0107819,0.0113216,0.0237922,0.0494903,-0.00535803,-0.00263178,0.038596,-0.717512,-0.563147,0.0117421,-1.10305,2.14036,0.1,-0.0237922,0.120274,0.192759,0.0903498,0.0850588,inf,inf,inf,inf,1,1,1,1,2,0,2,2,1,1,0
753438609,23617696,31.0276903,121.4409744,4.75305,-4.12032,1.23714,0.000512231,0.000809682,0.0,-0.0045087,0.00521702,0.0307367,0.0576431,-0.00535803,-0.00263178,0.038596,0.957079,0.307716,1.61602,-1.10328,2.14036,0.1,-0.0307367,0.114287,0.191693,0.0866238,0.083594,inf,inf,inf,inf,1,1,1,1,2,0,2,2,1,1,0
753538696,23617696,31.0276903,121.4409744,4.75328,-4.12011,1.24547,0.000512231,0.000809682,0.0,-0.00597583,0.00607838,0.0318204,0.0612835,-0.00535803,-0.00263178,0.038596,0.169133,0.200901,-0.891224,-1.10304,2.14036,0.1,-0.0318204,0.120867,0.193097,0.0906709,0.0852192,inf,inf,inf,inf,1,1,1,1,2,0,2,2,1,1,0
753638537,23617696,31.0276903,121.4409744,4.75366,-4.11994,1.25364,0.000512231,0.000809682,0.0,0.00384518,0.0096351,0.0359543,0.0675725,-0.00535803,-0.00263178,0.038596,-0.59475,0.750846,1.29141,-1.10298,2.14036,0.1,-0.0359543,0.114064,0.191406,0.0863925,0.0835206,inf,inf,inf,inf,1,1,1,1,2,0,2,2,1,1,0
753743378,23617696,31.0276903,121.4409744,4.75482,-4.12009,1.26409,0.000512231,0.000809682,0.0,0.0081889,-0.00471871,0.045987,0.0807008,-0.00535803,-0.00263178,0.038596,0.201435,-1.39596,2.44852,-1.10323,2.14036,0.1,-0.045987,0.120623,0.19283,0.090465,0.0851581,inf,inf,inf,inf,1,1,1,1,2,0,2,2,1,1,0
753843328,23617696,31.0276903,121.4409744,4.75689,-4.12036,1.27161,0.000512231,0.000809682,0.0,0.0123832,0.0101003,0.0555859,0.0892521,-0.00535803,-0.00263178,0.038596,-0.633714,2.66832,1.09133,-1.10333,2.14036,0.1,-0.0555859,0.114557,0.190916,0.0866931,0.0835289,inf,inf,inf,inf,1,1,1,1,2,0,2,2,1,1,0
753943293,23617696,31.0276903,121.4409744,4.75897,-4.12061,1.28031,0.000512231,0.000809682,0.0,0.00398091,0.00516371,0.059665,0.0930281,-0.00535803,-0.00263178,0.038596,-2.11191,1.38726,0.506049,-1.10355,2.14036,0.1,-0.059665,0.120675,0.191945,0.0904482,0.0849846,inf,inf,inf,inf,1,1,1,1,2,0,2,2,1,1,0
754044115,23617696,31.0276903,121.4409744,4.76195,-4.12172,1.28435,0.000512231,0.000809682,0.0,0.0223373,-0.00872282,0.0565016,0.0843613,-0.00535803,-0.00263178,0.038596,1.17959,-1.58172,-0.424747,-1.10363,2.14036,0.1,-0.0565016,0.114595,0.190939,0.0866548,0.0835408,inf,inf,inf,inf,1,1,1,1,2,0,2,2,1,1,0
754148121,23617696,31.0276903,121.4409744,4.76466,-4.12255,1.28882,0.000512231,0.000809682,0.0,0.0138984,0.00917512,0.0478068,0.0718632,-0.00535803,-0.00263178,0.038596,0.82745,1.38249,-1.15481,-1.10352,2.14036,0.1,-0.0478068,0.121189,0.192386,0.0907298,0.0851844,inf,inf,inf,inf,1,1,1,1,2,0,2,2,1,1,0
754248181,23617696,31.0276903,121.4409744,4.76656,-4.1221,1.29314,0.000512231,0.000809682,0.0,0.00661481,-0.00183551,0.0519306,0.0734339,-0.00535803,-0.00263178,0.038596,-0.526971,-0.262027,2.29601,-1.10368,2.14036,0.1,-0.0519306,0.114718,0.190124,0.0868042,0.0834131,inf,inf,inf,inf,1,1,1,1,2,0,2,2,1,1,0
754352092,23617696,31.0276903,121.4409744,4.7685,-4.12162,1.29469,0.000512231,0.000809682,0.0,0.0127666,-0.000722802,0.052306,0.0683642,-0.00535803,-0.00263178,0.038596,0.0982411,-1.61576,0.63356,-1.10406,2.14036,0.1,-0.052306,0.121325,0.192447,0.0908693,0.085227,inf,inf,inf,inf,1,1,1,1,2,0,2,2,1,1,0
754452886,23617696,31.0276903,121.4409744,4.77091,-4.12057,1.29248,0.000512231,0.000809682,0.0,0.0203758,-0.00287839,0.0524498,0.0600234,-0.00535803,-0.00263178,0.038596,-1.1985,-0.00696187,2.02736,-1.10477,2.14036,0.1,-0.0524498,0.11642,0.190568,0.0875032,0.0836142,inf,inf,inf,inf,1,1,1,1,2,0,2,2,1,1,0
754553073,23617696,31.0276903,121.4409744,4.77317,-4.11975,1.29027,0.000512231,0.000809682,0.0,0.0152689,0.00224123,0.0374236,0.0383283,-0.00535803,-0.00263178,0.038596,-1.83054,-0.366281,-0.473617,-1.10453,2.14036,0.1,-0.0374236,0.122642,0.1925,0.0912965,0.0852466,inf,inf,inf,inf,1,1,1,1,2,0,2,2,1,1,0
754652883,23617696,31.0276903,121.4409744,4.77704,-4.12056,1.27851,0.000512231,0.000809682,0.0,0.0159592,0.00746969,0.0365507,0.0227508,-0.00535803,-0.00263178,0.038596,-1.22864,-1.03351,2.40007,-1.10498,2.14036,0.1,-0.0365507,0.11923,0.190624,0.0884317,0.083634,inf,inf,inf,inf,1,1,1,1,2,0,2,2,1,1,0
754757760,23617696,31.0276903,121.4409744,4.78154,-4.12068,1.27415,0.000512231,0.000809682,0.0,0.0254413,0.008053,0.0161559,-0.00199068,-0.00535803,-0.00263178,0.038596,-1.26995,0.465182,-2.9364,-1.10578,2.14036,0.1,-0.0161559,0.126059,0.192084,0.0924791,0.0852779,inf,inf,inf,inf,1,1,1,1,2,0,2,2,1,1,0
754857706,23617696,31.0276903,121.4409744,4.78464,-4.12013,1.26975,0.000512231,0.000809682,0.0,0.0252587,0.00606201,0.0279531,0.00605194,-0.00535803,-0.00263178,0.038596,-0.902218,0.447499,-0.918952,-1.10644,2.14036,0.1,-0.0279531,0.12326,0.190227,0.0897161,0.0836738,inf,inf,inf,inf,1,1,1,1,2,0,2,2,1,1,0
754957655,23617696,31.0276903,121.4409744,4.78662,-4.11954,1.26348,0.000512231,0.000809682,0.0,0.0263989,0.0030301,0.0377859,0.00928172,-0.00535803,-0.00263178,0.038596,0.510357,8.81563e-06,-2.08918,-1.10671,2.14036,0.1,-0.0377859,0.120375,0.188691,0.0865894,0.0820147,inf,inf,inf,inf,1,1,1,1,2,0,2,2,1,1,0
755062550,23617696,31.0276903,121.4409744,4.78871,-4.12088,1.24986,0.000512231,0.000809682,0.0,0.0285324,-0.00786155,0.042197,-0.000162936,-0.00535803,-0.00263178,0.038596,-0.270602,-0.473268,1.35986,-1.10665,2.14036,0.1,-0.042197,0.127001,0.190953,0.0905835,0.0838494,inf,inf,inf,inf,1,1,1,1,2,0,2,2,1,1,0
755162570,23617696,31.0276903,121.4409744,4.7915,-4.12248,1.24009,0.000512231,0.000809682,0.0,0.0211106,-0.0172897,0.0429226,-0.00712894,-0.00535803,-0.00263178,0.038596,-1.16298,-2.41089,2.03347,-1.10686,2.14036,0.1,-0.0429226,0.125026,0.189177,0.0879386,0.082278,inf,inf,inf,inf,1,1,1,1,2,0,2,2,1,1,0
755262599,23617696,31.0276903,121.4409744,4.7955,-4.12497,1.23852,0.000512231,0.000809682,0.0,0.0319114,-0.01931,0.0403279,-0.00872644,-0.00535803,-0.00263178,0.038596,-1.07301,0.500001,1.52209,-1.10744,2.14036,0.1,-0.0403279,0.131339,0.190202,0.0916907,0.0837668,inf,inf,inf,inf,1,1,1,1,2,0,2,2,1,1,0
755363399,23617696,31.0276903,121.4409744,4.79952,-4.12684,1.23978,0.000512231,0.000809682,0.0,0.033667,-0.0244098,0.0455858,-0.000250262,-0.00535803,-0.00263178,0.038596,1.86711,-2.61765,-1.44451,-1.10758,2.14036,0.1,-0.0455858,0.129332,0.18844,0.0888941,0.0821666,inf,inf,inf,inf,1,1,1,1,2,0,2,2,1,1,0
755467402,23617696,31.0276903,121.4409744,4.8054,-4.12848,1.2336,0.000512231,0.000809682,0.0,0.0430354,-0.0205505,0.0334537,-0.0173343,-0.00535803,-0.00263178,0.038596,4.34562,2.18385,-2.93194,-1.10802,2.14036,0.1,-0.0334537,0.136242,0.190723,0.0929015,0.0840007,inf,inf,inf,inf,1,1,1,1,2,0,2,2,1,1,0
755567355,23617696,31.0276903,121.4409744,4.81028,-4.13009,1.22568,0.000512231,0.000809682,0.0,0.0316449,-0.0177509,0.0280088,-0.027811,-0.00535803,-0.00263178,0.038596,-0.209428,1.49551,0.16845,-1.10748,2.14036,0.1,-0.0280088,0.133783,0.188553,0.0897688,0.0822113,inf,inf,inf,inf,1,1,1,1,2,0,2,2,1,1,0
755668122,23617696,31.0276903,121.4409744,4.81479,-4.13067,1.21964,0.000512231,0.000809682,0.0,0.043247,-0.0259816,0.0205157,-0.0368253,-0.00535803,-0.00263178,0.038596,-1.00501,1.19624,-1.39422,-1.10823,2.14036,0.1,-0.0205157,0.140787,0.189982,0.0938141,0.0838813,inf,inf,inf,inf,1,1,1,1,2,0,2,2,1,1,0
755772056,23617696,31.0276903,121.4409744,4.8178,-4.1328,1.21512,0.000512231,0.000809682,0.0,0.0331545,-0.035507,0.0177055,-0.0389939,-0.00535803,-0.00263178,0.038596,-1.54957,-2.06424,-0.10479,-1.10784,2.14036,0.1,-0.0177055,0.140804,0.190708,0.0933687,0.0840715,inf,inf,inf,inf,1,1,1,1,2,0,2,2,1,1,0
755872043,23617696,31.0276903,121.4409744,4.81729,-4.13628,1.2016,0.000512231,0.000809682,0.0,0.042022,-0.0395556,0.00872717,-0.0562017,-0.00535803,-0.00263178,0.038596,1.11076,0.039313,-0.129771,-1.10861,2.14036,0.1,-0.00872717,0.147674,0.191805,0.097201,0.0855319,inf,inf,inf,inf,1,1,1,1,2,0,2,2,1,1,0
755976089,23617696,31.0276903,121.4409744,4.81944,-4.14017,1.18654,0.000512231,0.000809682,0.0,0.0389097,-0.0469009,0.00286712,-0.0689794,-0.00535803,-0.00263178,0.038596,0.688312,-0.165583,-1.48275,-1.10822,2.14036,0.1,-0.00286712,0.146808,0.19104,0.095555,0.0848699,inf,inf,inf,inf,1,1,1,1,2,0,2,2,1,1,0
756076909,23617696,31.0276903,121.4409744,4.82385,-4.14225,1.18058,0.000512231,0.000809682,0.0,0.0324484,-0.0425982,0.0177908,-0.0515426,-0.00535803,-0.00263178,0.038596,-1.80211,0.842105,3.01077,-1.1083,2.14036,0.1,-0.0177908,0.15444,0.193478,0.0996433,0.0866715,inf,inf,inf,inf,1,1,1,1,2,0,2,2,1,1,0
756176947,23617696,31.0276903,121.4409744,4.82768,-4.14482,1.17266,0.000512231,0.000809682,0.0,0.0352917,-0.053798,0.0241525,-0.0470666,-0.00535803,-0.00263178,0.038596,-2.35173,-1.12849,1.13594,-1.10905,2.14036,0.1,-0.0241525,0.151006,0.190989,0.0955193,0.084559,inf,inf,inf,inf,1,1,1,1,2,0,2,2,1,1,0
756276945,23617696,31.0276903,121.4409744,4.82879,-4.14591,1.16272,0.000512231,0.000809682,0.0,0.0348696,-0.0376601,0.0108525,-0.0636329,-0.00535803,-0.00263178,0.038596,-1.35596,0.659887,0.781115,-1.10872,2.14036,0.1,-0.0108525,0.158669,0.192552,0.0995648,0.0861813,inf,inf,inf,inf,1,1,1,1,2,0,2,2,1,1,0
756381767,23617696,31.0276903,121.4409744,4.82854,-4.14678,1.15237,0.000512231,0.000809682,0.0,0.0230921,-0.0212326,0.00266201,-0.0741205,-0.00535803,-0.00263178,0.038596,2.06764,2.92717,-1.08548,-1.10922,2.14036,0.1,-0.00266201,0.15519,0.191428,0.0955844,0.0844607,inf,inf,inf,inf,1,1,1,1,2,0,2,2,1,1,0
756481749,23617696,31.0276903,121.4409744,4.82565,-4.14683,1.15083,0.000512231,0.000809682,0.0,0.0182864,-0.0211033,-0.000546535,-0.0709735,-0.00535803,-0.00263178,0.038596,3.38109,3.47829,-3.15809,-1.1094,2.14036,0.1,0.000546535,0.16223,0.19253,0.0993598,0.0858899,inf,inf,inf,inf,1,1,1,1,2,0,2,2,1,1,0
756581711,23617696,31.0276903,121.4409744,4.82261,-4.14664,1.1504,0.000512231,0.000809682,0.0,0.0221481,-0.0243066,0.00860563,-0.0544589,-0.00535803,-0.00263178,0.038596,-0.805022,2.46798,-0.882465,-1.10989,2.14036,0.1,-0.00860563,0.152855,0.191427,0.093726,0.0842207,inf,inf,inf,inf,1,1,1,1,2,0,2,2,1,1,0
756686580,23617696,31.0276903,121.4409744,4.81916,-4.14609,1.14875,0.000512231,0.000809682,0.0,0.0317876,-0.0355622,0.00399684,-0.0543436,-0.00535803,-0.00263178,0.038596,0.196997,-0.991833,-2.95448,-1.10935,2.14036,0.1,-0.00399684,0.160121,0.192945,0.0977363,0.0858411,inf,inf,inf,inf,1,1,1,1,2,0,2,2,1,1,0
756790564,23617696,31.0276903,121.4409744,4.81777,-4.14647,1.14177,0.000512231,0.000809682,0.0,0.0107581,-0.0261864,0.000618279,-0.0582979,-0.00535803,-0.00263178,0.038596,-1.1253,-1.3064,2.92451,-1.10943,2.14036,0.1,-0.000618279,0.147479,0.190948,0.0913314,0.0839746,inf,inf,inf,inf,1,1,1,1,2,0,2,2,1,1,0
756890592,23617696,31.0276903,121.4409744,4.81789,-4.14733,1.13533,0.000512231,0.000809682,0.0,0.034453,-0.0252579,-0.00692503,-0.0648258,-0.00535803,-0.00263178,0.038596,1.39004,-0.192142,-0.713748,-1.10926,2.14036,0.1,0.00692503,0.153858,0.192892,0.0950651,0.0855662,inf,inf,inf,inf,1,1,1,1,2,0,2,2,1,1,0
756991305,23617696,31.0276903,121.4409744,4.81811,-4.14815,1.12487,0.000512231,0.000809682,0.0,0.0241263,-0.0104044,-0.0124292,-0.0736557,-0.00535803,-0.00263178,0.038596,0.591589,1.85253,-1.7732,-1.10948,2.14036,0.1,0.0124292,0.1407,0.19177,0.0892319,0.08393,inf,inf,inf,inf,1,1,1,1,2,0,2,2,1,1,0
757095334,23617696,31.0276903,121.4409744,4.81884,-4.14949,1.11749,0.000512231,0.000809682,0.0,0.0173544,-0.0241618,-0.000854146,-0.0621347,-0.00535803,-0.00263178,0.038596,-1.73888,-2.65345,-0.0278838,-1.10918,2.14036,0.102962,0.000854146,0.147243,0.193265,0.0932665,0.0855404,inf,inf,inf,inf,1,1,1,1,2,0,2,2,1,1,0
757195305,23617696,31.0276903,121.4409744,4.81769,-4.14976,1.10725,0.000512231,0.000809682,0.0,0.0124332,-0.0199884,-0.00143574,-0.0659435,-0.00535803,-0.00263178,0.038596,-2.41544,-1.25772,-0.967095,-1.10844,2.14036,0.113207,0.00143574,0.133989,0.191663,0.0876046,0.0837203,inf,inf,inf,inf,1,1,1,1,2,0,2,2,1,1,0
757296091,23617696,31.0276903,121.4409744,4.8159,-4.14831,1.1025,0.000512231,0.000809682,0.0,0.00539411,-0.0167734,0.00527928,-0.0567313,-0.00535803,-0.00263178,0.038596,-0.0265961,0.122255,-0.801651,-1.10836,2.14036,0.117955,-0.00527928,0.140181,0.193972,0.0916066,0.0855027,inf,inf,inf,inf,1,1,1,1,2,0,2,2,1,1,0
757400226,23617696,31.0276903,121.4409744,4.81376,-4.14727,1.10492,0.000512231,0.000809682,0.0,0.0120911,-0.0209231,0.0113588,-0.042349,-0.00535803,-0.00263178,0.038596,0.9258,0.201895,0.102232,-1.10891,2.14036,0.11553,-0.0113588,0.128408,0.191935,0.0868245,0.0837219,inf,inf,inf,inf,1,1,1,1,2,0,2,2,1,1,0
757500153,23617696,31.0276903,121.4409744,4.81132,-4.14609,1.10724,0.000512231,0.000809682,0.0,0.014016,-0.00895614,0.00623539,-0.0403594,-0.00535803,-0.00263178,0.038596,4.33237,1.81986,0.0822603,-1.10856,2.14036,0.11321,-0.00623539,0.13395,0.193776,0.090553,0.0853093,inf,inf,inf,inf,1,1,1,1,2,0,2,2,1,1,0
757600918,23617696,31.0276903,121.4409744,4.80911,-4.14456,1.11564,0.000512231,0.000809682,0.0,0.000614169,0.00111586,0.0130654,-0.0213262,-0.00535803,-0.00263178,0.038596,1.36513,2.75484,-0.581303,-1.10782,2.14036,0.104811,-0.0130654,0.123571,0.191699,0.0859904,0.0834755,inf,inf,inf,inf,1,1,1,1,2,0,2,2,1,1,0
757704962,23617696,31.0276903,121.4409744,4.80414,-4.14217,1.12029,0.000512231,0.000809682,0.0,-0.0156597,-0.00561909,0.0129161,-0.0142501,-0.00535803,-0.00263178,0.038596,-0.249676,-0.217243,-0.458117,-1.10904,2.14036,0.100165,-0.0129161,0.129449,0.193985,0.0900438,0.0852561,inf,inf,inf,inf,1,1,1,1,2,0,2,2,1,1,0
757804885,23617696,31.0276903,121.4409744,4.80019,-4.14164,1.12167,0.000512231,0.000809682,0.0,-0.0123068,-0.00331113,0.0177507,-0.00681112,-0.00535803,-0.00263178,0.038596,2.05239,1.07512,0.647009,-1.1091,2.14036,0.1,-0.0177507,0.120236,0.191534,0.0859242,0.0833256,inf,inf,inf,inf,1,1,1,1,2,0,2,2,1,1,0
757905652,23617696,31.0276903,121.4409744,4.79612,-4.14085,1.12208,0.000512231,0.000809682,0.0,-0.0202631,-0.00265593,0.00589735,-0.0164416,-0.00535803,-0.00263178,0.038596,1.58953,0.311701,2.16263,-1.10796,2.14036,0.1,-0.00589735,0.126095,0.193815,0.0899916,0.0851171,inf,inf,inf,inf,1,1,1,1,2,0,2,2,1,1,0
758005675,23617696,31.0276903,121.4409744,4.79425,-4.14063,1.11891,0.000512231,0.000809682,0.0,-0.0239653,-0.00280011,0.0139835,-0.0101665,-0.00535803,-0.00263178,0.038596,-0.829776,0.147738,0.933856,-1.10869,2.14036,0.101547,-0.0139835,0.11788,0.191359,0.0861653,0.0832357,inf,inf,inf,inf,1,1,1,1,2,0,2,2,1,1,0
758109712,23617696,31.0276903,121.4409744,4.79213,-4.14109,1.11582,0.000512231,0.000809682,0.0,-0.0169898,-0.00578364,0.0153734,-0.00993086,-0.00535803,-0.00263178,0.038596,2.46285,2.04866,2.24501,-1.10991,2.14036,0.104639,-0.0153734,0.123835,0.192785,0.090276,0.0848649,inf,inf,inf,inf,1,1,1,1,2,0,2,2,1,1,0
758209869,23617696,31.0276903,121.4409744,4.78883,-4.13972,1.11671,0.000512231,0.000809682,0.0,-0.0340309,0.00413865,0.0143073,-0.00866755,-0.00535803,-0.00263178,0.038596,-0.691832,-1.91421,2.52568,-1.10749,2.14036,0.103743,-0.0143073,0.116557,0.190816,0.0867011,0.0831824,inf,inf,inf,inf,1,1,1,1,2,0,2,2,1,1,0
758310575,23617696,31.0276903,121.4409744,4.78713,-4.13811,1.10764,0.000512231,0.000809682,0.0,-0.0221097,-0.00372836,0.0115142,-0.0186865,-0.00535803,-0.00263178,0.038596,-2.98926,-2.27109,1.48747,-1.10838,2.14036,0.112814,-0.0115142,0.122087,0.192639,0.0904348,0.0847948,inf,inf,inf,inf,1,1,1,1,2,0,2,2,1,1,0
758414575,23617696,31.0276903,121.4409744,4.78605,-4.13703,1.09445,0.000512231,0.000809682,0.0,-0.0317429,-0.00178647,0.000907577,-0.0389637,-0.00535803,-0.00263178,0.038596,-3.28101,-0.318806,0.389898,-1.10716,2.14036,0.126005,-0.000907577,0.115254,0.191545,0.0868566,0.0832817,inf,inf,inf,inf,1,1,1,1,2,0,2,2,1,1,0
758514576,23617696,31.0276903,121.4409744,4.78423,-4.13715,1.08259,0.000512231,0.000809682,0.0,-0.0362888,-0.0132472,0.0160118,-0.0316972,-0.00535803,-0.00263178,0.038596,-3.16803,-1.01747,-0.145135,-1.10741,2.14036,0.137861,-0.0160118,0.121388,0.192955,0.0909912,0.0849129,inf,inf,inf,inf,1,1,1,1,2,0,2,2,1,1,0
758615353,23617696,31.0276903,121.4409744,4.78267,-4.13806,1.08873,0.000512231,0.000809682,0.0,-0.0144422,-0.0314656,0.0172118,-0.0205332,-0.00535803,-0.00263178,0.038596,-2.49453,-1.85718,0.65271,-1.10829,2.14036,0.13172,-0.0172118,0.114743,0.191843,0.0872286,0.0833998,inf,inf,inf,inf,1,1,1,1,2,0,2,2,1,1,0
758719269,23617696,31.0276903,121.4409744,4.78157,-4.13883,1.09711,0.000512231,0.000809682,0.0,-0.0148041,-0.00310238,-0.000111868,-0.0269819,-0.00535803,-0.00263178,0.038596,-0.0279066,1.68498,-2.04047,-1.10798,2.14036,0.123347,0.000111868,0.120931,0.193223,0.0912941,0.0850253,inf,inf,inf,inf,1,1,1,1,2,0,2,2,1,1,0
758819263,23617696,31.0276903,121.4409744,4.78128,-4.13836,1.0879,0.000512231,0.000809682,0.0,0.0195134,-0.00646991,-0.0144411,-0.0474228,-0.00535803,-0.00263178,0.038596,-0.300644,0.174018,-0.162691,-1.10841,2.14036,0.132556,0.0144411,0.113723,0.19149,0.086945,0.0832665,inf,inf,inf,inf,1,1,1,1,2,0,2,2,1,1,0
758920078,23617696,31.0276903,121.4409744,4.7818,-4.13712,1.07901,0.000512231,0.000809682,0.0,0.00985789,0.00170013,-0.00541616,-0.0428908,-0.00535803,-0.00263178,0.038596,-3.02133,-1.46131,1.56228,-1.10858,2.14036,0.141447,0.00541616,0.119937,0.192874,0.0911033,0.0848987,inf,inf,inf,inf,1,1,1,1,2,0,2,2,1,1,0
759024117,23617696,31.0276903,121.4409744,4.78178,-4.13409,1.08343,0.000512231,0.000809682,0.0,-0.00833735,-0.0107733,-0.0122608,-0.0410875,-0.00535803,-0.00263178,0.038596,-3.65223,-2.04671,-1.8395,-1.10849,2.14036,0.13702,0.0122608,0.113558,0.190748,0.087225,0.0832069,inf,inf,inf,inf,1,1,1,1,2,0,2,2,1,1,0
759124125,23617696,31.0276903,121.4409744,4.77975,-4.13217,1.08487,0.000512231,0.000809682,0.0,-0.0269516,-0.0136119,0.0142464,-0.0109575,-0.00535803,-0.00263178,0.038596,-2.65697,-0.418539,-1.20222,-1.10656,2.14036,0.135585,-0.0142464,0.119862,0.193029,0.091291,0.0850317,inf,inf,inf,inf,1,1,1,1,2,0,2,2,1,1,0
759224901,23617696,31.0276903,121.4409744,4.77676,-4.13153,1.0882,0.000512231,0.000809682,0.0,-0.0392168,-0.0324806,0.0330944,0.010515,-0.00535803,-0.00263178,0.038596,-0.977709,0.536725,-0.605227,-1.10682,2.14036,0.132257,-0.0330944,0.113388,0.191517,0.087303,0.083385,inf,inf,inf,inf,1,1,1,1,2,0,2,2,1,1,0
759328897,23617696,31.0276903,121.4409744,4.77526,-4.1331,1.09167,0.000512231,0.000809682,0.0,-0.000954939,-0.0316898,0.0227893,0.00240326,-0.00535803,-0.00263178,0.038596,0.561445,1.61047,-2.32229,-1.10782,2.14036,0.128779,-0.0227893,0.119759,0.192887,0.0913188,0.0850394,inf,inf,inf,inf,1,1,1,1,2,0,2,2,1,1,0
759428945,23617696,31.0276903,121.4409744,4.78123,-4.1337,1.10008,0.000512231,0.000809682,0.0,0.0566809,-0.0226814,0.0204608,0.00834757,-0.00535803,-0.00263178,0.038596,-2.85019,0.235618,2.48655,-1.10657,2.14036,0.120379,-0.0204608,0.113757,0.191848,0.0875232,0.0835739,inf,inf,inf,inf,1,1,1,1,2,0,2,2,1,1,0
759529737,23617696,31.0276903,121.4409744,4.79049,-4.13437,1.10042,0.000512231,0.000809682,0.0,0.0442789,-0.0243136,0.0157996,0.00315829,-0.00535803,-0.00263178,0.038596,-2.03919,-2.64314,2.37652,-1.10609,2.14036,0.120034,-0.0157996,0.120214,0.193236,0.0916285,0.0851955,inf,inf,inf,inf,1,1,1,1,2,0,2,2,1,1,0
759633707,23617696,31.0276903,121.4409744,4.79382,-4.13267,1.09625,0.000512231,0.000809682,0.0,0.0258892,-0.0177475,0.022477,0.00544593,-0.00535803,-0.00263178,0.038596,0.078196,0.851798,0.109554,-1.10484,2.14036,0.124204,-0.022477,0.114068,0.19127,0.0877053,0.0835171,inf,inf,inf,inf,1,1,1,1,2,0,2,2,1,1,0
759733685,23617696,31.0276903,121.4409744,4.79316,-4.13128,1.09063,0.000512231,0.000809682,0.0,-0.00286235,-0.0297967,0.0279533,0.00469922,-0.00535803,-0.00263178,0.038596,-1.50416,-0.158768,-0.324589,-1.10487,2.14036,0.129826,-0.0279533,0.119863,0.192922,0.0913377,0.0851192,inf,inf,inf,inf,1,1,1,1,2,0,2,2,1,1,0
759833711,23617696,31.0276903,121.4409744,4.79173,-4.12971,1.10153,0.000512231,0.000809682,0.0,-0.00528896,-0.0337067,0.0336602,0.0203276,-0.00535803,-0.00263178,0.038596,-2.28432,-2.27437,-0.52874,-1.10535,2.14036,0.118927,-0.0336602,0.114134,0.190978,0.0874592,0.0834658,inf,inf,inf,inf,1,1,1,1,2,0,2,2,1,1,0
759934531,23617696,31.0276903,121.4409744,4.79247,-4.12879,1.11573,0.000512231,0.000809682,0.0,0.0124083,-0.021686,0.0194645,0.0185633,-0.00535803,-0.00263178,0.038596,-4.59887,-0.853318,-1.63267,-1.10463,2.14036,0.104728,-0.0194645,0.120144,0.192822,0.0911611,0.0850997,inf,inf,inf,inf,1,1,1,1,2,0,2,2,1,1,0
760038640,23617696,31.0276903,121.4409744,4.79376,-4.1266,1.12479,0.000512231,0.000809682,0.0,0.0178868,-0.0103282,0.0068355,0.0137132,-0.00535803,-0.00263178,0.038596,0.13334,0.593928,2.7369,-1.10405,2.14036,0.1,-0.0068355,0.11464,0.190962,0.0875482,0.08349,inf,inf,inf,inf,1,1,1,1,2,0,2,2,1,1,0
760138566,23617696,31.0276903,121.4409744,4.79398,-4.12436,1.1368,0.000512231,0.000809682,0.0,0.00866535,-0.0140778,0.0286987,0.0448954,-0.00535803,-0.00263178,0.038596,-0.229794,-0.417482,3.95024,-1.10408,2.14036,0.1,-0.0286987,0.121222,0.192367,0.0916506,0.0851295,inf,inf,inf,inf,1,1,1,1,2,0,2,2,1,1,0
760239301,23617696,31.0276903,121.4409744,4.79262,-4.12329,1.14244,0.000512231,0.000809682,0.0,0.00413904,-0.0172592,0.043693,0.0605756,-0.00535803,-0.00263178,0.038596,-2.33035,-1.19427,1.93202,-1.10483,2.14036,0.1,-0.043693,0.11494,0.190874,0.0875869,0.083479,inf,inf,inf,inf,1,1,1,1,2,0,2,2,1,1,0
760343407,23617696,31.0276903,121.4409744,4.79026,-4.12357,1.15623,0.000512231,0.000809682,0.0,-0.00871858,-0.0234307,0.0384901,0.062745,-0.00535803,-0.00263178,0.038596,3.21207,0.956983,-1.21428,-1.10501,2.14036,0.1,-0.0384901,0.121596,0.193199,0.0916382,0.0853128,inf,inf,inf,inf,1,1,1,1,2,0,2,2,1,1,0
760444152,23617696,31.0276903,121.4409744,4.78607,-4.12393,1.16543,0.000512231,0.000809682,0.0,-0.00251209,-0.0137463,0.032115,0.0580907,-0.00535803,-0.00263178,0.038596,5.00614,1.72824,-3.47774,-1.10476,2.14036,0.1,-0.032115,0.11572,0.19211,0.0877784,0.0838344,inf,inf,inf,inf,1,1,1,1,2,0,2,2,1,1,0
760544178,23617696,31.0276903,121.4409744,4.78363,-4.12382,1.16739,0.000512231,0.000809682,0.0,0.000508923,0.00510377,0.0203237,0.0420097,-0.00535803,-0.00263178,0.038596,4.42059,1.87782,-2.19048,-1.10351,2.14036,0.1,-0.0203237,0.121847,0.193033,0.091502,0.0852777,inf,inf,inf,inf,1,1,1,1,2,0,2,2,1,1,0
760648157,23617696,31.0276903,121.4409744,4.78271,-4.12234,1.17469,0.000512231,0.000809682,0.0,0.0107538,0.0192506,0.0257695,0.0497257,-0.00535803,-0.00263178,0.038596,1.10637,3.61802,-0.0205918,-1.10377,2.14036,0.1,-0.0257695,0.115628,0.192,0.0876434,0.0838221,inf,inf,inf,inf,1,1,1,1,2,0,2,2,1,1,0
760748111,23617696,31.0276903,121.4409744,4.78134,-4.12166,1.17459,0.000512231,0.000809682,0.0,-0.0116818,0.0117856,0.0218369,0.040528,-0.00535803,-0.00263178,0.038596,3.25561,2.62013,-3.15673,-1.10528,2.14036,0.1,-0.0218369,0.122284,0.193388,0.0917491,0.085455,inf,inf,inf,inf,1,1,1,1,2,0,2,2,1,1,0
760848927,23617696,31.0276903,121.4409744,4.779,-4.12099,1.17743,0.000512231,0.000809682,0.0,-0.0287691,0.0166481,0.0312312,0.0479397,-0.00535803,-0.00263178,0.038596,2.65104,3.32695,-2.62023,-1.10506,2.14036,0.1,-0.0312312,0.115252,0.191841,0.087269,0.0837585,inf,inf,inf,inf,1,1,1,1,2,0,2,2,1,1,0
760952903,23617696,31.0276903,121.4409744,4.77563,-4.12021,1.17693,0.000512231,0.000809682,0.0,-0.0362969,0.0168541,0.0365152,0.0477591,-0.00535803,-0.00263178,0.038596,-1.52548,-0.188248,1.42438,-1.10461,2.14036,0.1,-0.0365152,0.12187,0.193235,0.0913583,0.0854006,inf,inf,inf,inf,1,1,1,1,2,0,2,2,1,1,0
761052850,23617696,31.0276903,121.4409744,4.77518,-4.11812,1.18067,0.000512231,0.000809682,0.0,-0.0268601,0.0169969,0.0336624,0.0449212,-0.00535803,-0.00263178,0.038596,-2.27178,-0.427976,0.437537,-1.10507,2.14036,0.1,-0.0336624,0.115727,0.19134,0.0875534,0.083802,inf,inf,inf,inf,1,1,1,1,2,0,2,2,1,1,0
761153665,23617696,31.0276903,121.4409744,4.77416,-4.11588,1.1925,0.000512231,0.000809682,0.0,-0.0305942,0.0189512,0.0451694,0.0637023,-0.00535803,-0.00263178,0.038596,-1.43567,-1.54967,-0.440389,-1.10417,2.14036,0.1,-0.0451694,0.121859,0.193185,0.0913284,0.085426,inf,inf,inf,inf,1,1,1,1,2,0,2,2,1,1,0
761257714,23617696,31.0276903,121.4409744,4.77062,-4.11544,1.20132,0.000512231,0.000809682,0.0,-0.055415,-0.00031531,0.0419343,0.0619036,-0.00535803,-0.00263178,0.038596,-4.56579,-2.10338,-2.4342,-1.10554,2.14036,0.1,-0.0419343,0.115588,0.191252,0.0874481,0.0837979,inf,inf,inf,inf,1,1,1,1,2,0,2,2,1,1,0
761357736,23617696,31.0276903,121.4409744,4.76651,-4.11609,1.21185,0.000512231,0.000809682,0.0,-0.0625756,-0.00299157,0.0469193,0.0699848,-0.00535803,-0.00263178,0.038596,-4.19714,-1.99801,-1.55797,-1.10529,2.14036,0.1,-0.0469193,0.109912,0.18945,0.0837083,0.0821873,inf,inf,inf,inf,1,1,1,1,2,0,2,2,1,1,0
761458694,23617696,31.0276903,121.4409744,4.76372,-4.11636,1.22304,0.000512231,0.000809682,0.0,-0.0612695,-0.0043015,0.0576851,0.0838858,-0.00535803,-0.00263178,0.038596,-5.53533,-0.339545,-0.690596,-1.10469,2.14036,0.1,-0.0576851,0.115598,0.191235,0.0874261,0.0838309,inf,inf,inf,inf,1,1,1,1,2,0,2,2,1,1,0
761558644,23617696,31.0276903,121.4409744,4.76178,-4.11689,1.23197,0.000512231,0.000809682,0.0,-0.0450592,-0.00270853,0.0436288,0.0699275,-0.00535803,-0.00263178,0.038596,-3.03339,-0.500201,-2.32163,-1.10467,2.14036,0.1,-0.0436288,0.109881,0.189403,0.0837159,0.0822119,inf,inf,inf,inf,1,1,1,1,2,0,2,2,1,1,0
761662531,23617696,31.0276903,121.4409744,4.76201,-4.11805,1.23171,0.000512231,0.000809682,0.0,-0.0561141,-0.00647253,0.0567749,0.0744601,-0.00535803,-0.00263178,0.038596,-0.535579,1.3685,2.78277,-1.10505,2.14036,0.1,-0.0567749,0.116113,0.190827,0.0877458,0.0839004,inf,inf,inf,inf,1,1,1,1,2,0,2,2,1,1,0
761762526,23617696,31.0276903,121.4409744,4.75985,-4.11989,1.23292,0.000512231,0.000809682,0.0,-0.0480884,-0.0256066,0.0472192,0.0594452,-0.00535803,-0.00263178,0.038596,1.19966,-0.413003,1.612,-1.10576,2.14036,0.1,-0.0472192,0.122283,0.192704,0.0915567,0.0855301,inf,inf,inf,inf,1,1,1,1,2,0,2,2,1,1,0
761863321,23617696,31.0276903,121.4409744,4.76054,-4.12215,1.24317,0.000512231,0.000809682,0.0,-0.0494146,-0.0101329,0.0506674,0.0663788,-0.00535803,-0.00263178,0.038596,3.0115,0.896365,1.77,-1.1048,2.14036,0.1,-0.0506674,0.115916,0.190816,0.08757,0.0839055,inf,inf,inf,inf,1,1,1,1,2,0,2,2,1,1,0
761967344,23617696,31.0276903,121.4409744,4.76016,-4.12378,1.24685,0.000512231,0.000809682,0.0,-0.0578795,-0.0255374,0.0676573,0.0793667,-0.00535803,-0.00263178,0.038596,-0.902744,-1.18924,-0.15886,-1.10257,2.14036,0.1,-0.0676573,0.110391,0.189083,0.0840704,0.0823384,inf,inf,inf,inf,1,1,1,1,2,0,2,2,1,1,0
762068075,23617696,31.0276903,121.4409744,4.75879,-4.12488,1.2417,0.000512231,0.000809682,0.0,-0.0731839,-0.00100271,0.0587885,0.0573351,-0.00535803,-0.00263178,0.038596,3.09773,2.99255,-5.07767,-1.10247,2.14036,0.1,-0.0587885,0.116126,0.190046,0.0877691,0.0838272,inf,inf,inf,inf,1,1,1,1,2,0,2,2,1,1,0
762168242,23617696,31.0276903,121.4409744,4.75546,-4.12388,1.22685,0.000512231,0.000809682,0.0,-0.065739,0.00781886,0.0227718,0.00293224,-0.00535803,-0.00263178,0.038596,1.54819,-0.112692,2.57983,-1.10316,2.14036,0.1,-0.0227718,0.110368,0.189125,0.0839908,0.0823899,inf,inf,inf,inf,1,1,1,1,2,0,2,2,1,1,0
762272043,23617696,31.0276903,121.4409744,4.75431,-4.12293,1.20925,0.000512231,0.000809682,0.0,-0.087553,0.0112638,0.00587289,-0.029918,-0.00535803,-0.00263178,0.038596,-0.731336,0.667471,-1.67703,-1.10326,2.14036,0.1,-0.00587289,0.116649,0.190591,0.088097,0.0840816,inf,inf,inf,inf,1,1,1,1,2,0,2,2,1,1,0
762372121,23617696,31.0276903,121.4409744,4.75081,-4.1213,1.20074,0.000512231,0.000809682,0.0,-0.085643,0.0178803,0.0388627,-0.00288696,-0.00535803,-0.00263178,0.038596,-0.998317,1.31164,1.25607,-1.10147,2.14036,0.1,-0.0388627,0.110385,0.189221,0.0841269,0.0824345,inf,inf,inf,inf,1,1,1,1,2,0,2,2,1,1,0
762472895,23617696,31.0276903,121.4409744,4.74951,-4.1217,1.19829,0.000512231,0.000809682,0.0,-0.0839199,-0.00452997,0.0460757,0.00277398,-0.00535803,-0.00263178,0.038596,-3.5604,-0.55244,-0.520059,-1.09816,2.14036,0.1,-0.0460757,0.11663,0.190646,0.0881806,0.084123,inf,inf,inf,inf,1,1,1,1,2,0,2,2,1,1,0
762576999,23617696,31.0276903,121.4409744,4.74921,-4.12574,1.18973,0.000512231,0.000809682,0.0,-0.0752545,-0.0392107,0.0379941,-0.0124312,-0.00535803,-0.00263178,0.038596,-4.01169,0.14124,2.56668,-1.09651,2.14036,0.1,-0.0379941,0.110794,0.18889,0.0842508,0.0825003,inf,inf,inf,inf,1,1,1,1,2,0,2,2,1,1,0
762676903,23617696,31.0276903,121.4409744,4.75256,-4.13101,1.16986,0.000512231,0.000809682,0.0,-0.0568809,-0.000306523,-0.00875346,-0.074604,-0.00535803,-0.00263178,0.038596,2.63319,1.6816,-2.32447,-1.096,2.14036,0.1,0.00875346,0.11656,0.190726,0.0879777,0.0841407,inf,inf,inf,inf,1,1,1,1,2,0,2,2,1,1,0
762777668,23617696,31.0276903,121.4409744,4.75417,-4.1337,1.13619,0.000512231,0.000809682,0.0,-0.0696499,-0.00120684,-0.00720171,-0.0964255,-0.00535803,-0.00263178,0.038596,0.361943,-0.326307,3.05419,-1.09557,2.14036,0.1,0.00720171,0.110624,0.188917,0.0841091,0.0824824,inf,inf,inf,inf,1,1,1,1,2,0,2,2,1,1,0
762877704,23617696,31.0276903,121.4409744,4.75803,-4.13795,1.12684,0.000512231,0.000809682,0.0,-0.0459357,-0.053763,0.016412,-0.0715608,-0.00535803,-0.00263178,0.038596,-3.82641,-2.23202,2.46101,-1.09649,2.14036,0.1,-0.016412,0.116423,0.190793,0.0879293,0.0841304,inf,inf,inf,inf,1,1,1,1,2,0,2,2,1,1,0
762981710,23617696,31.0276903,121.4409744,4.76427,-4.14395,1.11464,0.000512231,0.000809682,0.0,-0.0150975,-0.0565261,0.0479171,-0.043906,-0.00535803,-0.00263178,0.038596,-3.13213,-0.403346,-3.49407,-1.09587,2.14036,0.105818,-0.0479171,0.110673,0.189813,0.0842055,0.0826596,inf,inf,inf,inf,1,1,1,1,2,0,2,2,1,1,0
763082550,23617696,31.0276903,121.4409744,4.77257,-4.14838,1.11841,0.000512231,0.000809682,0.0,-0.0413991,-0.0481887,0.0751252,-0.00812279,-0.00535803,-0.00263178,0.038596,0.55812,0.438676,1.89009,-1.09512,2.14036,0.102043,-0.0751252,0.11693,0.191208,0.0882129,0.0843165,inf,inf,inf,inf,1,1,1,1,2,0,2,2,1,1,0
